"asylum","location","latitude","longitude","location_pcode","location_level","location_id"
"AFG","Badakhshan : Wilayat - Province","36.997084225079","70.868858131116","20AFG015",1,2
"AFG","Badghis : Wilayat - Province","35.1671339","63.7695384","20AFG029",1,3
"AFG","Baghlan : Wilayat - Province","36.1789026","68.7453064","20AFG009",1,5
"AFG","Balkh : Wilayat - Province","36.7550603","66.8975372","20AFG018",1,6
"AFG","Bamyan : Wilayat - Province","34.9073296","67.1894488","20AFG010",1,7
"AFG","Daykundi : Wilayat - Province","33.669495","66.0463534","20AFG022",1,10
"AFG","Farah : Wilayat - Province","32.495328","62.2626627","20AFG031",1,11
"AFG","Faryab : Wilayat - Province","36.0795613","64.905955","20AFG028",1,12
"AFG","Ghazni : Wilayat - Province","33.4982289","67.7615983","20AFG011",1,13
"AFG","Ghor : Wilayat - Province","34.0995776","64.905955","20AFG021",1,14
"AFG","Helmand : Wilayat - Province","31.3636474","63.9586111","20AFG032",1,15
"AFG","Herat : Wilayat - Province","34.352865","62.2040287","20AFG030",1,16
"AFG","Jawzjan : Wilayat - Province","36.8969692","65.6658568","20AFG027",1,17
"AFG","Kabul : Wilayat - Province","34.5553494","69.207486","20AFG001",1,19
"AFG","Kandahar : Wilayat - Province","31.628871","65.7371749","20AFG033",1,20
"AFG","Kapisa : Wilayat - Province","34.9810572","69.6214562","20AFG002",1,21
"AFG","Khost : Wilayat - Province","33.3338472","69.9371673","20AFG026",1,22
"AFG","Kunar : Wilayat - Province","34.8465893","71.097317","20AFG013",1,23
"AFG","Kunduz : Wilayat - Province","36.7285907","68.8680663","20AFG017",1,24
"AFG","Laghman : Wilayat - Province","34.6897687","70.1455805","20AFG007",1,25
"AFG","Logar : Wilayat - Province","34.0145518","69.1923916","20AFG005",1,26
"AFG","Nangarhar : Wilayat - Province","34.1718313","70.6216794","20AFG006",1,30
"AFG","Nimroz : Wilayat - Province","31.0261488","62.4504154","20AFG034",1,31
"AFG","Nuristan : Wilayat - Province","35.3250223","70.9071236","20AFG014",1,33
"AFG","Paktia : Wilayat - Province","33.706199","69.3831079","20AFG012",1,34
"AFG","Paktika : Wilayat - Province","32.2645386","68.5247149","20AFG025",1,35
"AFG","Panjshir : Wilayat - Province","35.3350467","69.7167783","20AFG008",1,36
"AFG","Parwan : Wilayat - Province","34.9630977","68.8108849","20AFG003",1,38
"AFG","Samangan : Wilayat - Province","35.973505902664","67.831778892969","20AFG019",1,39
"AFG","Sar-e Pol : Wilayat - Province","36.216628","65.93336","20AFG020",1,40
"AFG","Takhar : Wilayat - Province","36.6698013","69.4784541","20AFG016",1,41
"AFG","Urozgan : Wilayat - Province","32.821883330513","66.049515801953","20AFG023",1,42
"AFG","Wardak : Wilayat - Province","34.3513494","68.2385339","20AFG004",1,43
"AFG","Zabul : Wilayat - Province","32.1918782","67.1894488","20AFG024",1,45
"ALB","Babrru Centre","41.3558299","19.8291167","ALBs002431",3,49
"ALB","Tirana Urban : Point","41.3275459","19.8186982","ALBs003136",3,69
"ALB","Albania : Dispersed in the country/territory","41.153332","20.168331","ALB",0,47
"ALB","Mamurras","41.5780148","19.6966667","ALBr000000227",3,62
"ALB","Saranda","39.873949024789","20.002805386789","ALBr000000188",3,3607
"ALG","Algeria : Dispersed in the country / territory","28.033886","1.659626","DZA",0,70
"ALG","Tindouf : Wilaya - Province","27.6761012","-8.1276526","20DZA044",1,78
"ANG","Luanda","-8.8193143056718","13.231887323376","AGOs003138",3,92
"ANG","Cabinda","-5.5705739","12.197583","AGOr000000513",3,84
"ANG","Lunda Norte","-8.5369801877629","19.527396957734","20AGO012",1,93
"ANG","Lunda Sul","-10.179446445739","21.020830961075","20AGO013",1,94
"ANG","Bengo","-9.1042257","13.7289167","20AGO001",1,80
"ANG","Bie","-12.5727907","17.668887","20AGO003",1,82
"ANG","Cunene","-17.178632778056","15.913364297869","20AGO008",1,4128
"ANG","Huambo","-12.7739761","15.7468535","AGOr000000217",3,85
"ANG","Kwanza Norte","-9.2398513","14.6587821","20AGO006",1,90
"ANG","Kwanza Sul","-10.595191","15.4068079","20AGO007",1,91
"ANG","Moxico","-13.4293579","20.3308814","20AGO015",1,98
"ANG","Uige","-7.6102105","15.0615865","AGOr000000119",3,101
"ANG","Zaire","-6.5733458","13.1740348","20AGO018",1,103
"ANG","Malanje","-9.5418224","16.3346061","AGOr000000608",3,97
"AIA","The Valley","18.214629629705","-63.057452294609","AIAr000000001",3,3605
"ANT","St. John","17.115692212978","-61.840829200616","ATGr000000015",3,104
"ARG","Argentina : Dispersed in the country / territory","-35.381377641726","-65.035968264648","ARG",0,105
"ARM","Yerevan : City","40.1791857","44.4991029","ARMs003145",3,160
"ARM","Aragatsotn : Marz - Province","40.376329868047","44.194705493237","20ARM002",1,114
"ARM","Ararat : Marz - Province","39.9753273","44.8338058","20ARM003",1,115
"ARM","Armavir : Marz - Province","40.1315615","43.8325355","20ARM004",1,117
"ARM","Gergharkunik : Marz - Province","40.3863696","45.3355097","20ARM005",1,128
"ARM","Kotayk : Marz - Province","40.4277896","44.6641741","20ARM007",1,135
"ARM","Lori : Marz - Province","40.9698452","44.4900138","20ARM006",1,136
"ARM","Shirak : Marz - Province","40.8384463","43.9142396","20ARM008",1,144
"ARM","Syunik : Marz - Province","39.2028881","46.4798169","20ARM009",1,148
"ARM","Tavush : Marz - Province","40.9152268","45.4032387","20ARM011",1,151
"ARM","Vayots Dzor : Marz - Province","39.8107912","45.4967174","20ARM010",1,156
"ABW","Aruba : Dispersed in the country / territory","12.52111","-69.968338","ABW",0,161
"AUL","Australia : Dispersed in the country / territory","-25.274398","133.775136","AUS",0,163
"AUS","Austria : Dispersed in the country / territory","47.516231","14.550072","AUT",0,164
"AZE","Aghdam : Rayon","39.9931853","46.9949562","20AZE002002",2,166
"AZE","Aghjabedi : Rayon","40.0529597","47.4553529","20AZE003004",2,168
"AZE","Aghsu : Rayon","40.5742298","48.3896404","20AZE006006",2,170
"AZE","Baku : Municipality","40.4092617","49.8670924","20AZE001019",2,174
"AZE","Fuzuli : Rayon","39.6024762","47.1523402","20AZE002015",2,180
"AZE","Sabirabad : Rayon","39.9870663","48.4692545","20AZE003060",2,215
"AZE","Shaki : Municipality","41.1974753","47.1571241","20AZE069069",2,219
"AZE","Shirvan : Municipality","39.9265747","48.9205727","20AZE003070",2,224
"AZE","Zagatala : Rayon","41.603085","46.638308","20AZE069081",2,231
"AZE","Absheron : Rayon","40.338309256429","49.242181637329","20AZE001001",2,165
"AZE","Aghdash : Rayon","40.6335427","47.467431","20AZE003003",2,167
"AZE","Aghstafa : Rayon","41.1124969","45.447689","20AZE018005",2,169
"AZE","Astara : Rayon","38.4687834","48.8728029","20AZE046007",2,172
"AZE","Balakan : Rayon","41.7037509","46.4044213","20AZE069009",2,175
"AZE","Barda : Rayon","40.3706555","47.1378909","20AZE003010",2,176
"AZE","Beylagan : Rayon","39.7723073","47.6154166","20AZE003011",2,177
"AZE","Bilasuvar : Rayon","39.4598833","48.5509813","20AZE003012",2,178
"AZE","Dashkasan : Rayon","40.5202257","46.0779304","20AZE018014",2,179
"AZE","Gabala : Point","40.9981633","47.8699826","AZEr000000200",3,181
"AZE","Gadabay : Rayon","40.5087904","45.6728851","20AZE018021",2,182
"AZE","Gakh : Point","41.4206827","46.9320184","AZEr000000192",3,183
"AZE","Ganja : Point","40.6878581","46.3723313","AZEs003148",3,184
"AZE","Gazakh : Point","41.09004183871","45.347320383443","AZEr000000108",3,185
"AZE","Gobustan : Point","40.5326104","48.927375","AZEr000000078",3,187
"AZE","Goranboy : Rayon","40.6073164","46.7807131","AZEs002228",3,188
"AZE","Goychay : Rayon","40.6236168","47.7403034","20AZE003024",2,189
"AZE","Goygol : Rayon","40.5895257","46.3271378","20AZE018025",2,190
"AZE","Guba : Point","41.3643024","48.5260928","20AZE026026",2,191
"AZE","Gusar : Point","41.4266886","48.4345577","AZEr000000055",3,192
"AZE","Hajigabul : Rayon","40.039377","48.9202532","20AZE003029",2,193
"AZE","Imishli : Rayon","39.8694686","48.0665217","20AZE003030",2,194
"AZE","Ismayilli : Rayon","40.7871438","48.1523426","20AZE006031",2,195
"AZE","Jabrayil (Jojug Marjanli) : Point","39.322985563547","47.179548715871","AZEr000000201",3,4323
"AZE","Jalilabad : Point","39.2051632","48.5100604","AZEr000000038",3,196
"AZE","Khachmaz : Point","41.4591168","48.8020626","AZEr000000035",3,197
"AZE","Khizi : Point","40.9109489","49.0729264","AZEr000000238",3,199
"AZE","Kurdamir : Rayon","40.3698651","48.1644626","20AZE003044",2,200
"AZE","Lachin (Takhta Korpu) : Point","39.6383414","46.5460853","AZEr000000097",3,201
"AZE","Lankaran : Municipality","38.7528669","48.8475015","20AZE046046",2,202
"AZE","Masalli : Rayon","39.0340722","48.6589354","20AZE046048",2,203
"AZE","Mingechavir : Municipality","40.7702563","47.0496015","20AZE003049",2,204
"AZE","Naftalan : Municipality","40.5075632","46.8239786","20AZE018050",2,205
"AZE","Nakhchivan : Autonomous republic","39.2009126","45.4082269","20AZE051051",2,206
"AZE","Neftchala : Rayon","39.3881052","49.2413743","20AZE003054",2,207
"AZE","Oghuz : Rayon","41.0727924","47.4650672","20AZE069056",2,208
"AZE","Saatli : Rayon","39.9095503","48.3595122","20AZE003058",2,214
"AZE","Salyan : Rayon","39.5779145","48.9718588","20AZE003062",2,216
"AZE","Samukh : Rayon","40.9576728","46.5294636","20AZE018063",2,217
"AZE","Shabran : Point","41.2159825","48.994559","AZEr000000106",3,218
"AZE","Shamakhi : Rayon","40.6318731","48.6363801","20AZE006066",2,220
"AZE","Shamkir : Rayon","40.8288144","46.0166879","20AZE018067",2,221
"AZE","Siyazan : Rayon","41.0783833","49.1118478","20AZE026072",2,225
"AZE","Sumgayit : Municipality","40.5854765","49.6317411","20AZE001073",2,226
"AZE","Tartar : Rayon","40.3443875","46.9376519","20AZE002075",2,227
"AZE","Tovuz : Rayon","40.9954523","45.6165907","20AZE018076",2,228
"AZE","Ujar : Rayon","40.5067525","47.6489641","20AZE003077",2,229
"AZE","Yevlakh : Municipality","40.6196638","47.1500324","20AZE003080",2,230
"AZE","Zardab : Rayon","40.2148114","47.714944","20AZE003083",2,232
"AZE","Azerbaijan : Dispersed in the country/territory","40.143105","47.576927","AZE",0,173
"BHS","Bahamas : Dispersed in the country / territory","25.03428","-77.39628","BHS",0,233
"BAH","Bahrain : Dispersed in the country / territory","26.0667","50.5577","BHR",0,236
"BGD","Dhaka : Zila - District","23.810332","90.4125181","20BGD030026",2,243
"BGD","Cox's Bazar : Zila - District","21.5225389","91.958344","20BGD020022",2,242
"BGD","Bandarban : Zila - District","21.798832342782","92.467656596582","20BGD020003",2,237
"BGD","Barisal","22.7029212","90.3465971","BGDr000000409",3,240
"BGD","Bhasan Char","22.3729","91.37659","BGDs032275",3,4778
"BGD","Camp 10","21.189743","92.154259","BGDs032263",3,3785
"BGD","Camp 11","21.18276","92.155749","BGDs032264",3,3795
"BGD","Camp 12","21.179848","92.151807","BGDs032265",3,3796
"BGD","Camp 13","21.178584","92.139856","BGDs032267",3,3798
"BGD","Camp 14","21.167026","92.144114","BGDs032268",3,3793
"BGD","Camp 15","21.160567","92.142901","BGDs032269",3,3782
"BGD","Camp 16","21.156461","92.149144","BGDs032270",3,3779
"BGD","Camp 17","21.197513","92.142851","BGDs032259",3,3799
"BGD","Camp 18","21.188976","92.14759","BGDs032262",3,3786
"BGD","Camp 19","21.183266","92.142411","BGDs032266",3,3790
"BGD","Camp 1E","21.216533","92.15566","BGDs032247",3,3797
"BGD","Camp 1W","21.21342","92.152348","BGDs032248",3,3791
"BGD","Camp 20","21.190871","92.140296","BGDs032261",3,3807
"BGD","Camp 20 Extension","21.194559","92.13437","BGDs032260",3,3776
"BGD","Camp 21","21.132213","92.158584","BGDs000044",3,3811
"BGD","Camp 22","21.088437","92.196866","BGDs032246",3,3801
"BGD","Camp 24","20.971724","92.247979","BGDs000041",3,3804
"BGD","Camp 25","20.980258","92.247219","BGDs032272",3,3802
"BGD","Camp 26","20.956998269302","92.254368386925","BGDs000036",3,3805
"BGD","Camp 27","20.936073","92.260864","BGDs032274",3,3803
"BGD","Camp 2E","21.206630233851","92.164367186508","BGDs032251",3,3780
"BGD","Camp 2W","21.208912","92.158323","BGDs032250",3,3794
"BGD","Camp 3","21.209166","92.149164","BGDs032249",3,3788
"BGD","Camp 4","21.208249","92.142885","BGDs032257",3,3810
"BGD","Camp 4 Extension","21.206272","92.136679","BGDs032258",3,3809
"BGD","Camp 5","21.2022","92.150814","BGDs032254",3,3789
"BGD","Camp 6","21.203955","92.156858","BGDs032253",3,3792
"BGD","Camp 7","21.203122","92.165297","BGDs032252",3,3781
"BGD","Camp 8E","21.195558","92.164966","BGDs032256",3,3808
"BGD","Camp 8W","21.19679","92.154084","BGDs032255",3,3787
"BGD","Camp 9","21.189991","92.160313","BGDs032245",3,3784
"BGD","Chittagong : Zila - District","22.3475365","91.8123324","20BGD020015",2,241
"BGD","Kutupalong","21.212083","92.163801","BGDs000035",3,3918
"BGD","Nayapara","20.957341","92.249869","BGDs032273",3,3917
"BGD","Other","21.134749524594","92.161393180684","BGDs000039",3,4793
"BGD","Rangamati : Zila - District","22.6573498","92.1732708","20BGD020084",2,249
"BAR","Barbados : Dispersed in the country / territory","13.193887","-59.543198","BRB",0,250
"BLR","Belarus : Dispersed in the country / territory","53.709807","27.953389","BLR",0,251
"BLR","Gomel : Oblast - Region","52.4411761","30.9878462","20BLR002",1,253
"BLR","Grodno : Oblast - Region","53.6693538","23.8131306","20BLR003",1,254
"BLR","Horad Minsk : City","53.9029742","27.5549986","BLRs003160",3,255
"BLR","Minsk : Oblast - Region","53.9045398","27.5615244","20BLR005",1,256
"BLR","Vitebsk : Oblast - Region","55.1848061","30.201622","20BLR007",1,258
"BLR","Brest : Oblast - Region","52.0976214","23.7340503","20BLR001",1,252
"BLR","Mogilev : Oblast - Region","53.9007159","30.3313598","20BLR006",1,257
"BEL","Belgium : Dispersed in the country / territory","50.503887","4.469936","BEL",0,259
"BZE","Belize : Dispersed in the country / territory","17.25489801554","-88.538420254956","BLZ",0,260
"BEN","Benin : Dispersed in the country / territory","9.30769","2.315834","BEN",0,269
"BEN","Cotonou","6.3702928","2.3912362","BENs003154",3,271
"BOL","Dispersed in country","12.565679","104.990963","KHM",0,261
"BSN","Federation of Bosnia and Herzegovina : Entity","43.8874897","17.842793","20BIH002",1,293
"BSN","Brcko : District","44.8726563","18.8106276","20BIH001001",2,291
"BSN","Republika Srpska : Entity","44.7280186","17.3148136","20BIH003",1,297
"BOT","Dukwi : Point","-20.586048","26.5078971","BWAs000079",3,299
"BOT","Gaborone","-24.6282079","25.9231471","BWAr000000071",3,300
"BOT","Dispersed in country","12.565679","104.990963","KHM",0,261
"BRA","Brazil : Dispersed in the country / territory","-14.235004","-51.92528","BRA",0,306
"BVI","British Virgin Islands : Dispersed in the country / territory","18.420695","-64.639968","VGB",0,331
"BRU","Brunei Darussalam : Dispersed in the country / territory","4.536303742534","114.64170956549","BRN",0,333
"BUL","Bulgaria : Dispersed in the country / territory","42.733883","25.48583","BGR",0,334
"BKF","Ouagadougou : Point","12.471226","-1.470112","BFAs003156",3,348
"BKF","Bobo-Dioulasso : Department","11.1649219","-4.3051542","BFAr000000052",3,336
"BKF","Boucle du Mouhoun","12.451963873796","-3.4686409414211","20BFA046",1,4524
"BKF","Cascades","10.639874011896","-4.7605666860042","20BFA047",1,4518
"BKF","Centre","12.367811378891","-1.5289195790733","20BFA013",1,4513
"BKF","Centre-Est","11.782654525305","-0.36633932673559","20BFA048",1,4519
"BKF","Centre-Nord","13.090797854408","-1.0870053567734","20BFA049",1,4514
"BKF","Centre-Ouest","12.254243930253","-2.3619739973299","20BFA050",1,4520
"BKF","Centre-Sud","11.664457882953","-1.0694791067649","20BFA051",1,4521
"BKF","Est","12.058868007119","0.36214706911618","20BFA052",1,4522
"BKF","Hauts-Bassins","11.174893510273","-4.2942125488983","20BFA053",1,4523
"BKF","Nord","13.569638199127","-2.4166442754349","20BFA054",1,4515
"BKF","Plateau Central","12.589339063527","-1.2967899930671","20BFA055",1,4517
"BKF","Sahel","14.032325753451","-0.03312404212195","20BFA056",1,4516
"BKF","Sud-Ouest","10.324455528054","-3.1712631297729","20BFA057",1,4525
"BKF","Burkina Faso : Dispersed in the country / territory","12.238333","-1.561593","BFA",0,337
"BKF","Ouahigouya : Department","13.5668258","-2.4109908","BFAs004484",3,350
"BKF","Dori","14.0246473","-0.0233208","BFAs004467",3,341
"BDI","Bujumbura: Town","-3.364529849477","29.358402985042","BDIs003153",3,353
"BDI","Burundi : Dispersed in the country / territory","-3.373056","29.918886","BDI",0,354
"BDI","Bwagiriza : Point","-3.3625524645809","30.275769504864","BDIs003896",3,356
"BDI","Kavumu: Point","-3.2405671","29.567315","BDIs004686",3,363
"BDI","Kinama: Point","-2.8820193362669","30.207261338253","BDIs002068",3,364
"BDI","Musasa : Point","-4.071199894","29.61700058","BDIs003069",3,366
"BDI","Nyankanda","-3.289581","30.312841","BDIs004904",3,3719
"CVI","Cabo Verde : Dispersed in the country/territory","15.120142","-23.6051722","CPV",0,397
"CAM","Phnom Penh : Autonomous municipality","11.5448729","104.8921668","20KHM012",1,399
"CAM","Dispersed in country","12.565679","104.990963","KHM",0,261
"CMR","Cameroon : Dispersed in the country / territory","5.6970623130854","12.787651992676","CMR",0,432
"CMR","Yaounde : Point","3.872999907","11.52229977","CMRs003199",3,530
"CMR","Douala","4.0272032018039","9.7833251953125","CMRs032256",3,3666
"CMR","Mbankomo","3.791952","11.40269","CMRr000000465",3,478
"CMR","Mfou","3.9656739","11.9305278","CMRs032282",3,492
"CMR","Betare Oya : Point","5.5920207","14.0856133","CMRs004050",3,422
"CMR","Adinkol : Point","4.6647729625876","13.796641668572","CMRs004061",3,404
"CMR","Alhamdou","6.6520848136986","14.904296211457","CMRs008571",3,405
"CMR","Awae","3.9001877","11.8806177","CMRs032260",3,407
"CMR","Babongo : Point","6.8096301","14.1829214","CMRs004046",3,408
"CMR","Bafouck : Point","6.6669328511708","14.785141473099","CMRs004009",3,410
"CMR","Bafoussam","5.4712232304431","10.421304702759","CMRs008612",3,3667
"CMR","Bagodo : Point","6.4245507","13.384723","CMRs004064",3,411
"CMR","Bakombo","4.4","14.25","CMRs009614",3,3716
"CMR","Bamenda","5.9630513","10.1591213","CMRs032263",3,413
"CMR","Bandongoue","4.4","14.216667","CMRs009615",3,3717
"CMR","Batouri","4.4354347","14.3617343","CMRs009616",3,416
"CMR","Bazzama : Point","4.506102","13.93707","CMRr000000384",3,417
"CMR","Bedobo : Point","4.793781","14.56212","CMRs004022",3,418
"CMR","Beke Chantier","7.3500636332105","13.260635544625","CMRs008573",3,419
"CMR","Belabo","4.9224556","13.2923232","CMRs032265",3,420
"CMR","Belel","7.0513571","14.4344853","CMRs004030",3,421
"CMR","Belimbam","4.333333","14.766667","CMRs009617",3,3756
"CMR","Belita II","4.383333","14.7","CMRs009618",3,3725
"CMR","Bertoua","4.5549497965608","13.683471679688","CMRs009626",3,3668
"CMR","Bigoro","6.533329964","13.64999962","CMRs009632",3,423
"CMR","Boforo","5.666667","10.716667","CMRs032266",3,424
"CMR","Bombe Pana","4.4961321853682","14.861949918213","CMRs008575",3,425
"CMR","Borgop : Point","6.9156857517776","14.800752621566","CMRs004008",3,426
"CMR","Boubara : Point","4.7100512","14.5932063","CMRs004019",3,427
"CMR","Bougogo","4.5","14.35","CMRs009619",3,3726
"CMR","Boulembe : Point","4.7479481","13.860757","CMRs004059",3,428
"CMR","Bouli","4.283329964","14.94999981","CMRs004063",3,429
"CMR","Buea","4.1515549226808","9.2424441062947","CMRs008652",3,431
"CMR","Dang Patou : Point","5.9168529693591","13.843885994484","CMRs004060",3,436
"CMR","Digou Adamou : Point","6.8442991367803","14.264670219815","CMRs004040",3,437
"CMR","Dir : Point","6.3296141","13.5379072","CMRs004065",3,438
"CMR","Djaoro Mone","7.0802142267767","15.133420316972","CMRs032267",3,440
"CMR","Djohong : Point","6.8344177","14.6966832","CMRs004015",3,441
"CMR","Dompta","7.3042437868207","15.15740419641","CMRs009636",3,3727
"CMR","Ebolowa","2.9262958","11.1560732","CMRs032268",3,445
"CMR","Edea","3.7953482","10.1367166","CMRs032269",3,446
"CMR","Eseka","3.6418242114808","10.78130214354","CMRs032270",3,3671
"CMR","Fada : Point","6.7329712890094","14.600823522021","CMRs004018",3,447
"CMR","Gadji","4.483333","14.05","CMRr000000106",3,3728
"CMR","Gado Badzere : Point","5.7487796682698","14.441087549655","CMRs004028",3,448
"CMR","Gandinang : Point","6.7200550457317","14.453641319983","CMRs004027",3,449
"CMR","Garga Libona : Point","6.7276209021451","14.203806851584","CMRs004044",3,450
"CMR","Garga Sarali : Point","5.3288735","14.0493215","CMRs004052",3,451
"CMR","Gargapela : Point","6.8132548840758","14.897997094733","CMRs004006",3,452
"CMR","Gari-Gombo","3.9328102539881","15.109811879496","CMRs005230",3,3708
"CMR","Garoua-Boulai : Point","5.8901373","14.5480484","CMRs004025",3,454
"CMR","Gazi","6.149742216977","13.866580526886","CMRs032271",3,3729
"CMR","Gbabio","5.7862740022544","14.544871098406","CMRs008577",3,455
"CMR","Gbakim : Point","4.5608276135734","14.515360797451","CMRs004026",3,456
"CMR","Gbata","6.698962","14.387283","CMRs008578",3,3757
"CMR","Gbiti : Point","4.6815667593186","14.715585708618","CMRs004014",3,457
"CMR","Gomana","8.5407957","13.1538504","CMRr000000485",3,458
"CMR","Goro","7.65","15.66","CMRs004058",3,459
"CMR","Gribi","3.7205461347853","15.133769829847","CMRs009613",3,3706
"CMR","Guiwa Yangamo : Point","4.9740836377833","14.040661541166","CMRs004053",3,461
"CMR","Kambele","4.4638444720649","14.398289866721","CMRs009620",3,462
"CMR","Kenzou : Point","4.1757741","15.0294415","CMRs004002",3,463
"CMR","Kette : Point","4.8931044041356","14.543515858569","CMRs004023",3,464
"CMR","Kombo","6.2244851","10.6759772","CMRr000000229",3,466
"CMR","Kombo Laka : Point","6.4167684954088","14.733127150072","CMRs004012",3,467
"CMR","Komboul","6.0346119937907","14.384906021301","CMRs009629",3,3732
"CMR","Kouba : Point","4.6268509896513","13.772543150578","CMRs032272",3,468
"CMR","Kounde","6.3712040174343","13.815940165029","CMRs008579",3,469
"CMR","Kribi","2.9405941","9.9101915","CMRs032274",3,471
"CMR","Kwele","4.3","14.55","CMRs032275",3,3734
"CMR","Limbe","4.0224656","9.1954432","CMRs008596",3,473
"CMR","Lokoti : Point","6.3781338","14.323918","CMRs004035",3,474
"CMR","Lolo","4.2787768479094","14.899460552585","CMRs005229",3,3735
"CMR","Mandjou : Point","4.5897640027123","13.754543247931","CMRs004062",3,475
"CMR","Mbai-Mboum","7.5368251498103","15.453864030899","CMRs032277",3,3736
"CMR","Mbalmayo","3.5144204","11.5077573","CMRs032278",3,477
"CMR","Mbanga","4.482302655983","9.5705816872287","CMRs008616",3,3670
"CMR","Mbarang : Point","6.6931280171243","14.349669116571","CMRs004034",3,479
"CMR","Mbewe : Point","7.15","12.75","CMRs004010",3,480
"CMR","Mbile : Point","4.3264415406942","14.839673176758","CMRs004007",3,481
"CMR","Mbomba","4.208904","12.9125599","CMRs009631",3,482
"CMR","Mbondo : Point","6.833330154","14.66670036","CMRs004067",3,483
"CMR","Mbonga : Point","4.547248","9.071049","CMRs004029",3,484
"CMR","Mborguene : Point","5.743437","14.26968","CMRs004033",3,485
"CMR","Mboumama : Point","4.7577560093482","14.432139302204","CMRs004031",3,487
"CMR","Mboy","3.4630377113414","15.464245453495","CMRs008582",3,3709
"CMR","Meidougou : Point","6.4250318","14.222154","CMRs004042",3,488
"CMR","Meiganga : Point","6.5163966","14.2919273","CMRs004038",3,489
"CMR","Messamena","3.733333","12.833333","CMRs032281",3,3737
"CMR","Mobe : Point","4.6316084752977","14.060743831463","CMRs004051",3,496
"CMR","Moinam","4.718980761135","13.842066537842","CMRs008583",3,497
"CMR","Moloundou","2.0451331362765","15.214032909437","CMRs032283",3,3738
"CMR","Mombal","5.616667","14.366667","CMRs009630",3,3739
"CMR","Monatele","4.2753924","11.2665498","CMRr000000307",3,499
"CMR","Nabemo : Point","6.8759261008088","14.758531901671","CMRs004011",3,500
"CMR","Nandoungue : Point","5.6713148","14.3937403","CMRs004032",3,501
"CMR","Ndanga Gandima : Point","-20.183333","31.333333","CMRs004054",3,502
"CMR","Ndelele","4.0380776383842","14.933337235818","CMRs009624",3,3701
"CMR","Ndokayo : Point","5.5145382","14.1204622","CMRs004047",3,503
"CMR","Ngam","6.73375","14.57014","CMRs005228",3,3758
"CMR","Ngaoui : Point","6.7470806667829","14.944281815309","CMRs004005",3,504
"CMR","Ngaoundal","6.4677274968309","13.269598649733","CMRs032286",3,3715
"CMR","Ngaoundere","7.3381488","13.5668302","CMRr000000373",3,505
"CMR","Ngarisingo","3.5543631786375","15.056567381881","CMRs008564",3,3742
"CMR","Ngoura","4.3973209195792","14.564539878927","CMRr000000267",3,3700
"CMR","Nguindi : Point","4.4607209527025","14.107601431756","CMRs004048",3,508
"CMR","Nkolafamba","3.858905","11.6648502","CMRs032289",3,510
"CMR","Nkolmetet","3.4385704536494","11.765201111304","CMRs032290",3,3673
"CMR","Nkongsamba","4.9727994881641","9.930835465959","CMRs008614",3,3674
"CMR","Nkoteng","4.5386117926734","12.014579758472","CMRs032291",3,3675
"CMR","Nyabi : Point","4.3905350482346","14.678989192831","CMRs004016",3,511
"CMR","Nyambaka","6.8931435","14.0957767","CMRs008585",3,512
"CMR","Obala","4.1581668","11.5361726","CMRs032292",3,513
"CMR","Ouli","5.2","14.55","CMRs009627",3,3743
"CMR","Ouro-Adde : Point","6.8449398327865","14.953330342231","CMRs004003",3,514
"CMR","Roma","4.833333","14.683333","CMRs009623",3,3744
"CMR","Samba : Point","3.8663862","11.5044486","CMRs004049",3,515
"CMR","Sandaye : Point","4.4158208168932","14.316632820825","CMRr000000242",3,516
"CMR","Sandji","4.4954539746294","14.862203694924","CMRs008586",3,517
"CMR","Sandji II","4.300000191","14.89999962","CMRs008587",3,518
"CMR","Simi","6.533329964","13.61670017","CMRs009633",3,520
"CMR","Soa","3.971696","11.598714","CMRs032294",3,521
"CMR","Sodenou","5.5036865876285","14.278571800611","CMRs008588",3,522
"CMR","Sodepa","5.0460392099566","14.174399972604","CMRs032295",3,523
"CMR","Tapare : Point","4.7493753","14.2788422","CMRs004039",3,524
"CMR","Tibati","6.4680108018265","12.618518393203","CMRs032296",3,3746
"CMR","Timangolo : Point","4.628766867968","14.544970626131","CMRs004024",3,525
"CMR","Toktoyo : Point","5.1962196283821","14.660128125859","CMRs004017",3,526
"CMR","Tongo Gandima : Point","5.6348958025278","14.565754875187","CMRs032297",3,527
"CMR","Touboro","7.767365632477","15.350658408102","CMRs032298",3,3676
"CMR","Woumbou : Point","5.2294446801516","14.249874733806","CMRs004041",3,528
"CMR","Yamba : Point","7.107907944521","15.205811144197","CMRs004001",3,529
"CMR","Yarmbang : Point","7.0097704747862","14.959368551382","CMRs004004",3,531
"CMR","Yokadouma","3.527111240236","15.053177950542","CMRs005231",3,3677
"CMR","Yokosire : Point","5.8210744497404","14.564325687814","CMRs004021",3,532
"CMR","Yola","4.0244155444371","15.021824792874","CMRs008589",3,3745
"CMR","Zamboi","6.3093150632536","13.234805467168","CMRs032299",3,533
"CMR","Zembe Borongo : Point","5.498594503474","14.299066396831","CMRs004037",3,534
"CMR","Langui","9.340132951157","13.584394415324","CMRs003866",3,472
"CMR","Maroua","10.5925289","14.3210095","CMRs032276",3,476
"CMR","Minawao","10.564917905702","13.856522976471","CMRs004589",3,495
"CMR","Adamaoua","6.9181954","12.8054753","20CMR001",1,401
"CMR","Centre","12.367811378891","-1.5289195790733","20BFA013",1,4513
"CMR","Extreme-Nord","11.1","14.5","20CMR004",1,4796
"CMR","Littoral","4.26","10.1","20CMR005",1,4797
"CMR","Nord-Ouest","6.37","10.4","20CMR007",1,4799
"CMR","Ouest","5.5","10.6","20CMR008",1,4802
"CMR","Sud-Ouest","10.324455528054","-3.1712631297729","20BFA057",1,4525
"CMR","Mengang","4.768784197433","12.434761991829","CMRs032280",3,490
"CMR","Kousseri","12.087083","15.0148322","CMRs009178",3,470
"CMR","Sangmelima","2.9372148","11.9861694","CMRs032293",3,519
"CMR","Dschang","5.4459387","10.0471549","CMRs008639",3,444
"CMR","Akwaya","6.3804902810212","9.5090875240685","CMRs016504",3,3669
"CMR","Banyo","6.7496639","11.8036596","CMRs032264",3,414
"CAN","Canada : Dispersed in the country / territory","56.130366","-106.346771","CAN",0,535
"CAY","Cayman Islands : Dispersed in the country / territory","19.3133","-81.2546","CYM",0,536
"CAR","Bangui : Commune","4.366502","18.5524386","20CAF071",1,540
"CAR","Ombella M'Poko : Prefecture","5.0878177568114","17.99141872584","20CAF011",1,562
"CAR","Bamingui-Bangoran : Prefecture","8.2733455","20.7122465","20CAF051",1,539
"CAR","Basse Kotto","4.8719319","21.2845025","20CAF061",1,541
"CAR","Haut-Mbomou : Prefecture","6.2537134","25.4733554","20CAF063",1,547
"CAR","Haute-Kotto : Prefecture","7.7964379","23.3823545","20CAF052",1,546
"CAR","Kemo","5.808260161223","19.277803419551","20CAF041",1,552
"CAR","Lobaye","4.3525981","17.4795173","20CAF012",1,553
"CAR","Mambere Kadei","4.7055653","15.9699878","20CAF021",1,554
"CAR","Mbomou : Prefecture","5.5189714515511","23.331798556025","20CAF062",1,555
"CAR","Nana-Gribizi : Economic prefecture","7.083330154","19.25","20CAF042",1,560
"CAR","Nana-Mambere","5.6932135","15.2194808","20CAF022",1,559
"CAR","Ouaka","6","21","20CAF043",1,563
"CAR","Ouham : Prefecture","7.090911","17.668887","20CAF032",1,564
"CAR","Ouham-Pende : Prefecture","6.4850984","16.1580937","20CAF031",1,565
"CAR","Sangha Mbaere","3.5","16.08329964","20CAF023",1,568
"CAR","Vakaga : Prefecture","9.5113296","22.2384017","20CAF053",1,569
"CAR","Haut-Mbomou: Obo/Mboki","5.3138646660642","26.252962567834","20CAF063003",2,548
"CHD","N'Djamena : Region","12.1348457","15.0557415","20TCD018",1,651
"CHD","Dosseye : Point","8.1537228121102","16.487137939063","TCDs003104",3,610
"CHD","Abeche","13.811409769012","20.824584960938","TCDs002573",3,4465
"CHD","Amboko : Point","7.9375188234184","16.587732316836","TCDs002402",3,582
"CHD","Beakoro","7.85461","16.465958","TCDs080155",3,3935
"CHD","Bedagoussang","7.860847","16.492393","TCDs080149",3,3936
"CHD","Bekan","7.81843","16.418272","TCDs080150",3,3937
"CHD","Bekourou","8.112055","17.51173","TCDs007761",3,592
"CHD","Belome : Point","10.93719959","15.43159962","TCDs004478",3,593
"CHD","Bembaidji","7.71435","16.17946","TCDs080147",3,3940
"CHD","Bengakara","7.811817","16.37991","TCDs080153",3,3941
"CHD","Bengonda","8.06667","16.166667","TCDs080152",3,3942
"CHD","Betabar","7.970949","16.06311","TCDs080146",3,3943
"CHD","Bongor","10.281634","15.371314","TCDr000000068",3,3945
"CHD","Daha 1","9.21895","20.477933","TCDs028455",3,3954
"CHD","Daha 2","9.489722","20.738889","TCDs005121",3,3953
"CHD","Dembo : Point","8.1439176","17.8272883","TCDs034564",3,605
"CHD","Diba","7.787601","15.769735","TCDr000000077",3,3952
"CHD","Dilingala","8.244491827424","17.69597888979","TCDs007763",3,3951
"CHD","Doholo : Point","9.123370171","16.24640083","TCDs007759",3,609
"CHD","Don","7.841305","16.4689716667","TCDs080148",3,3988
"CHD","Doumou","7.7882466666667","16.342348333333","TCDs080151",3,3989
"CHD","Gon","8.100073","17.673781","TCDs080047",3,3950
"CHD","Gondje : Point","7.9595750252097","16.553759956106","TCDs003057",3,617
"CHD","Goz Amer : Point","11.997784799005","21.752843852915","TCDs002885",3,621
"CHD","Kerfi","11.8809280085","21.302525581724","TCDs004590",3,635
"CHD","La Nya Pende","7.9234102982913","16.633782509428","20TCD009005",2,4404
"CHD","Moulkou","10.539077","15.58042","TCDs034550",3,3948
"CHD","Moyo : Point","9.9191882898575","20.878396126296","TCDs010065",3,650
"CHD","Silambi","8.416667","17.783333","TCDs080154",3,3947
"CHD","Tissi","10.9455","22.8614","TCDs004606",3,4468
"CHD","Vom","7.786899","15.765769","TCDs034555",3,3946
"CHD","Lac Region","13.540636445562","14.311419746181","20TCD007",1,3761
"CHD","Bol","13.46","14.74","TCDr000000118",3,4783
"CHD","Chari Baguirmi","11.7284","15.2457","20TCD003",1,4784
"CHD","Dar Es Salam : Point","13.619262851699","14.298645805507","TCDs080005",3,603
"CHD","Treguine : Point","13.440408202681","21.686418535098","TCDs002897",3,666
"CHD","Daboua","14.4136","13.6128","TCDs080014",3,4785
"CHD","Kiskawa","14.24","13.919","TCDs080040",3,4787
"CHD","Kiskra","13.8149075","14.1286765","TCDs015441",3,4788
"CHD","Liwa","13.8681","14.2646","TCDs015443",3,4789
"CHD","Ngouboua : Point","13.530656854485","14.002305819262","TCDs015446",3,652
"CHD","Tchoukoutalia : Point","13.672703206386","13.9132083077","TCDs009621",3,663
"CHD","Guelendeng","10.920325","15.546781","TCDs028460",3,3759
"CHD","Melea Dar Salam","13.75","14.16","TCDs080112",3,4790
"CHD","Am Nabak : Point","14.764034637187","22.332855549923","TCDs002895",3,579
"CHD","Bredjing : Point","13.428607191099","21.6971225607","TCDs002889",3,598
"CHD","Djabal : Point","13.9333333","22.2","TCDs002892",3,606
"CHD","Farchana : Point","12.45440006","15.21440029","TCDs002655",3,612
"CHD","Gaga : Point","13.763162499614","21.43895265442","TCDs002988",3,613
"CHD","Iriba","15.1268","22.2463","TCDr000000066",3,4786
"CHD","Iridimi : Point","15.127491113293","22.136586724385","TCDs002891",3,634
"CHD","Kouchaguine Moura","13.808278","21.18413","TCDs080156",3,4467
"CHD","Kounoungou : Point","14.463244413175","21.94217601136","TCDs002650",3,641
"CHD","Mile : Point","14.6","21.9","TCDs002890",3,646
"CHD","Oure Cassoni : Point","15.723019968999","23.101813948118","TCDs002894",3,654
"CHD","Touloum : Point","15.003101283307","22.272458617647","TCDs002893",3,665
"CHL","Chile : Dispersed in the country / territory","-35.675147","-71.542969","CHL",0,669
"CHI","Anhui: Province","31.779929809618","117.28527530677","20CHN001",1,3613
"CHI","Beijing : Municipality","39.904211","116.407395","20CHN002",1,673
"CHI","Guangdong : Province","23.132191","113.266531","20CHN006",1,678
"CHI","Heilongjiang: Province","46.712147530682","128.90470357586","20CHN011",1,3615
"CHI","Hubei : Province","30.546498","114.341862","20CHN014",1,686
"CHI","Jiangsu : Province","32.061707","118.763232","20CHN017",1,688
"CHI","Liaoning : Province","41.836175","123.431383","20CHN020",1,691
"CHI","Shaanxi : Province","34.265472","108.954239","20CHN024",1,697
"CHI","Shan Dong : Province","35.837333857662","118.67598616773","20CHN025",1,698
"CHI","Shanghai : Municipality","31.230416","121.473701","20CHN026",1,699
"CHI","Shanxi : Province","37.873532","112.562398","20CHN027",1,700
"CHI","Xinjiang : Autonomous Region","43.793026","87.627704","20CHN032",1,705
"CHI","Yunnan : Province","25.045806","102.710002","20CHN033",1,708
"CHI","Zhejiang : Province","30.267443","120.152792","20CHN034",1,709
"CHI","Henan : Province","34.765515","113.753602","20CHN012",1,684
"CHI","Hebei : Province","38.037057","114.468665","20CHN010",1,683
"CHI","Chongqing : Municipality","29.466331750898","106.99452405518","20CHN003",1,675
"CHI","Fujian : Province","26.10078","119.295144","20CHN004",1,676
"CHI","Guangxi : Autonomous Region","22.815478","108.327546","20CHN007",1,679
"CHI","Hunan : Province","27.419989966924","111.7273839964","20CHN015",1,685
"CHI","Ji Lin : Province","43.243750946051","126.91195954954","20CHN019",1,687
"CHI","Jiangxi : Province","28.675697","115.909228","20CHN018",1,689
"CHI","Neimenggu : Province","40.81739","111.76629","20CHN016",1,694
"CHI","Sichuan : Province","30.213656681116","102.70272373506","20CHN028",1,3616
"CHI","Tianjin : Municipality","39.316158007119","117.35650820752","20CHN030",1,701
"CHI","China : Dispersed in the country / territory","35.86166","104.195397","CHN",0,674
"CHI","Hainan : Province","20.017378","110.349229","20CHN009",1,681
"CHI","Guizhou: Province","26.757738861865","106.99977309948","20CHN008",1,3614
"HKG","Hong Kong SAR, China : Dispersed in the country / territory","22.396428","114.109497","HKG",0,1358
"MAC","Macao SAR, China : Dispersed in the country / territory","22.198745","113.543873","MAC",0,1798
"COL","Barranquilla","11.0041072","-74.8069813","COLs003205",3,714
"COL","Bogota : Capital district","4.31533432","-74.17960358","20COL011001",2,715
"COL","Department of Arauca","6.6495434553646","-70.707013696064","20COL081",1,4409
"COL","Cali : Point","3.4516467","-76.5319854","COLs003208",3,720
"COL","Cúcuta: Point","7.8890971","-72.4966896","COLr000000884",3,718
"COL","Colombia : Dispersed in the country / territory","4.570868","-74.297333","COL",0,723
"COL","Department of Amazonas","-1.1625225831742","-71.205212137689","20COL091",1,4408
"COL","Department of Antioquia","6.7393268476196","-75.399700692245","20COL005",1,4407
"COL","Department of Atlantico","10.727400594716","-74.941761919705","20COL008",1,4410
"COL","Department of Bolivar","4.1758510827187","-75.257059344945","20COL013",1,4411
"COL","Department of Boyaca","5.6059756776571","-73.009995293539","20COL015",1,4412
"COL","Department of Caldas","5.2877358799596","-75.390419276393","20COL017",1,4413
"COL","Department of Caqueta","1.348962119897","-75.135498046875","20COL018",1,4414
"COL","Department of Casanare","5.0312679348351","-72.410888671875","20COL085",1,4415
"COL","Department of Cauca","2.7076365034205","-76.915283203125","20COL019",1,4416
"COL","Department of Cesar","10.312440797587","-73.330933447202","20COL020",1,4417
"COL","Department of Choco","5.6168100795542","-77.091690957673","20COL027",1,4418
"COL","Department of Cordoba","8.3913847356002","-75.870462410103","20COL023",1,4419
"COL","Department of Cundinamarca","5.3602055408741","-74.378146764607","20COL025",1,4420
"COL","Department of Guainia","2.7981691015261","-68.376027068665","20COL094",1,4421
"COL","Department of Guaviare","1.9443497191422","-72.189673915252","20COL095",1,4422
"COL","Department of Huila","2.951784059071","-75.322265625","20COL041",1,4423
"COL","Department of La Guajira","11.21844089233","-72.886159560345","20COL044",1,4424
"COL","Department of Magdalena","11.069082513168","-73.993602293852","20COL047",1,4425
"COL","Department of Meta","3.7624609745896","-72.560799342737","20COL050",1,4426
"COL","Department of Nariño","1.3126768371909","-77.652345248236","20COL052",1,4427
"COL","Department of Norte de Santander","7.7958675645576","-72.66357421875","20COL054",1,4428
"COL","Department of Putumayo","0.61968464651415","-75.927422589653","20COL086",1,4429
"COL","Department of Quindio","4.4619405349546","-75.73974609375","20COL063",1,4430
"COL","Department of Risaralda","4.838478109298","-75.593740908041","20COL066",1,4431
"COL","Department of Santander","7.0060879737922","-73.248145214906","20COL068",1,4432
"COL","Department of Sucre","8.8523762072448","-74.90478515625","20COL070",1,4433
"COL","Department of Tolima","4.3551407770007","-75.25634765625","20COL073",1,4434
"COL","Department of Valle del Cauca","3.6318085167221","-76.57470703125","20COL076",1,4435
"COL","Department of Vaupes","0.91636503383241","-70.769709919887","20COL097",1,4436
"COL","Department of Vichada","4.85887740367","-69.114990234375","20COL099",1,4437
"COL","San Andres Islas : Department","12.53832722","-81.70453644","20COL088001",2,735
"COL","Cartagena : Point","10.3910485","-75.4794257","COLs003209",3,721
"COL","Medellín: Point","6.245790005","-75.57459259","COLr000000717",3,729
"COL","Pasto","1.2058837","-77.285787","COLs003224",3,732
"COL","Buenaventura : Point","3.8830471","-77.0197212","COLs003207",3,717
"COI","Comoros: dispersed in the country/territory","-11.62015645056","43.342273785083","COM",0,4532
"COB","Brazzaville : Capital","-4.2633597","15.2428853","COGs002934",3,748
"COB","Dolisie","-","-",NA,NA,NA
"COB","Hinda","-4.613332","12.043612","20COG005001",2,4759
"COB","Louvakou","-3.963335","12.598607","20COG008006",2,4760
"COB","Pointe Noire : Point","-4.7691623","11.866362","20COG010001",2,782
"COB","Tchiamba-Nzassi","-4.88778","12.062222","20COG005006",2,4761
"COB","Impfondo : Point","1.6259451","18.0539382","COGr000000006",3,756
"COB","Kintele Commune","-4.15","15.342224","COGr000000016",3,4610
"COB","Loukoléla","-1.038055","17.113887","20COG003002",2,4615
"COB","Moungoungui","2.998212","17.751356","COGs002928",3,4624
"COB","Ngabe","-3.198612","16.173615","COGr000000029",3,4627
"COB","Ouesso Commune","1.613609","16.05167","20COG012003",2,4633
"COB","Oyo","-1.033333","15.666667","COGs026825",3,4446
"COB","Betou-Centre","3.060364","18.515648","20COG007001",2,4597
"COB","Boundji/Obouya","-1.0254555","15.3541013","COGr000000060",3,747
"COB","Djambala","-2.5398781","14.7550108","COGs026818",3,751
"COB","Dongou","2.0465457","18.0509743","COGs002937",3,753
"COB","Enyelle","2.8175071","18.0183739","COGs002913",3,754
"COB","Gamboma","-1.8699741","15.8818766","COGr000000035",3,755
"COB","Ibenga","2.3316","18.1513","COGs002938",3,4607
"COB","Ignié","-3.34667","15.4883","COGr000000125",3,4608
"COB","Ikpembele","3.176705","18.620981","COGs002916",3,4609
"COB","Liranga","-0.663843","17.597281","COGs004977",3,766
"COB","Lombo","3.067433","17.172026","COGr000000109",3,4613
"COB","Lopola","3.073266","16.99274","COGr000000110",3,4614
"COB","Makoua District","0.006948","15.633337","20COG003003",2,4617
"COB","Mokabi","3.288495","16.797984","COGr000000113",3,4618
"COB","Mokeko","1.563332","15.94111","COGr000000070",3,4619
"COB","Mouale","3.374671","17.175026","COGr000000116",3,4623
"COB","Ngbala","2.016671","14.899997","COGr000000119",3,4628
"COB","Ngo","-2.487226","15.755554","20COG009009",2,4629
"COB","Owando","-0.4829632","15.8936224","COGr000000048",3,780
"COB","Pikounda","0.551941","16.630831","COGr000000041",3,4636
"COB","Mokeko","1.404996","16.318336","20COG012001",2,4637
"COB","Site du 15 Avril","3.057331","18.507018","COGs031854",3,4640
"COB","Thanry","2.636627","17.183077","COGr000000111",3,4644
"COB","Tingama","3.398022","17.330367","COGr000000112",3,4645
"COB","Bouenza","-4.1750975823277","13.557674572311","20COG001",1,4307
"COB","Lekoumou","-3.1765523328741","13.393232736768","20COG006",1,765
"COB","Niari : Departement","-3.18427","12.2547919","20COG008",1,775
"COB","Pool : Departement","-3.8257012691957","15.208611000098","20COG011",1,783
"COB","Site de Bouemba","-2.159194","16.128042","COGs031856",3,4639
"COB","Epena","1.352499","17.452499","20COG007005",2,4605
"COB","Kelle","-0.061393","14.496667","20COG004003",2,4757
"COB","Makotimpoko","-1.996103","16.312679","20COG009006",2,4616
"COB","Montsenge","-1.932107","16.291574","COGr000000114",3,4620
"COB","Mopongo","-1.939586","16.357947","COGr000000115",3,4621
"COB","Mossaka","-1.214164","16.794166","20COG003004",2,4622
"COB","Mpouya","-2.6162972","16.2125017","COGr000000043",3,772
"COB","Site Procob","-1.996725","16.308394","COGr000000123",3,4641
"COB","Site Sous-prefecture","-1.994514","16.313989","COGr000000124",3,4642
"COB","Abala","-1.339722","15.520835","20COG009001",2,4596
"COB","Bouanela","0.50861","17.293053","COGr000000009",3,4599
"COB","Etoumbi","0.028888","14.905558","20COG004001",2,4758
"COB","Ewo : District","-0.90100420301152","14.811753791844","20COG004002",2,3617
"COB","Ngo : Point","-2.4872738","15.7527221","COGs004676",3,774
"COB","Okoyo : District","-1.3987184097073","14.851752649634","20COG004006",2,777
"COB","Ollombo","-1.2722707","15.8936224","COGr000000084",3,778
"COS","Costa Rica : Dispersed in the country / territory","9.748917","-83.753428","CRI",0,790
"ICO","Abidjan : Departement","5.3599517","-4.0082563","20CIV014001",2,372
"ICO","Khorogo","9.4669337","-5.6142558","CIVr000000227",3,384
"ICO","Guiglo : Departement","6.5490578","-7.4976536","CIVs010444",3,383
"ICO","Tabou : Departement","4.4279197","-7.3570576","CIVs003003",3,389
"HRV","Croatia : Dispersed in the country / territory","45.1","15.2","HRV",0,799
"HRV","Zagreb","45.8150108","15.981919","20HRV021",1,800
"CUB","La Habana : Provincia","23.0540698","-82.345189","20CUB007",1,821
"CUB","Havana","23.0540698","-82.345189",NA,3,818
"CUB","Guantánamo : Provincia","20.00329971","-75.13330078","20CUB006",1,817
"CUB","Camaguey : Provincia","21.41460037","-77.94450378","20CUB002",1,811
"CUB","Pinar del Rio : Provincia","0","0","20CUB013",1,825
"CUB","Ciego de Avila : Provincia","21.9329515","-78.5660852","20CUB003",1,812
"CUB","Cienfuegos : Provincia","22.2379783","-80.365865","20CUB004",1,813
"CUB","Holguin : Provincia","20.88773918","-76.25879669","20CUB008",1,819
"CUB","Las Tunas : Provincia","21.0605162","-76.9182097","20CUB010",1,822
"CUB","Matanzas : Provincia","22.5767123","-81.3399414","20CUB011",1,823
"CUB","Sancti Spiritus : Provincia","21.9938214","-79.4703885","20CUB014",1,826
"CUB","Villa Clara : Provincia","22.4937204","-79.9192702","20CUB016",1,828
"CUW","Curacao : Dispersed in the country / territory","12.14841843","-68.92140961","CUW",0,829
"CYP","Cyprus : Dispersed in the country / territory","35.126413","33.429859","CYP",0,830
"CZE","Brno","49.193090710163","16.642742537641","CZEr000000051",3,4349
"CZE","Czech Republic : Dispersed in the country / territory","49.817492","15.472962","CZE",0,838
"CZE","Havirov","49.7803923","18.4306254","CZEs000114",3,840
"CZE","Predlice","50.6586023","13.9885833","CZEs000113",3,848
"CZE","Jaromer","50.3568041","15.924138","CZEs002665",3,843
"COD","Kinshasa","-4.3386631025837","15.298716226382","CODr000000151",3,3858
"COD","Kongo Central","-5.3416565853701","13.26868697085","20COD020",1,4364
"COD","Biringi","2.7999148","30.3377852","CODs002989",3,878
"COD","Bukavu : Point","-2.5123017","28.8480284","CODr000000115",3,882
"COD","Dilolo : Point","-10.6857884","22.3397377","CODs000127",3,886
"COD","Fizi","-4.3006793","28.9441309","20COD062023",2,899
"COD","Goma","-1.658501","29.2204548","20COD061010",2,901
"COD","Kalehe : Point","-2.0968724","28.9048234","CODr000000078",3,914
"COD","Kalemie : Point","-5.9127393","29.1913918","CODr000000149",3,915
"COD","Katanda (Tshiala)","-6.3498290397462","23.896360527724","CODr000000100",3,4070
"COD","Kipushi","-11.7602273","27.2499749","CODr000000085",3,937
"COD","Kolwezi","-10.7275273","25.5088914","20COD704030",2,942
"COD","Kongolo","-5.4035609709212","27.006590254605","CODr000000142",3,4061
"COD","Likasi : City","-10.9884148","26.7378585","CODr000000036",3,946
"COD","Lubudi : Territoire","-9.9564007","25.9704503","20COD704034",2,949
"COD","Lubumbashi : Point","-11.6876026","27.5026174","CODs003203",3,950
"COD","Lukolo","-4.9487262108206","28.742608125964","CODr000000155",3,4041
"COD","Lusenda","-3.8984288626201","29.100780620215","CODs011864",3,4369
"COD","Mongemonge","-4.1172577673741","29.086864753074","CODs002905",3,4034
"COD","Mulongwe","-4.2262629451421","29.042148200631","CODs031852",3,4370
"COD","Sakania","-12.758902240808","28.572936542446","CODr000000105",3,4068
"COD","Tanganyika","-5.9291458426308","29.184080287814","20COD706",1,4022
"COD","TC Kavimvira","-3.3506087078612","29.15875163613","CODs005226",3,4367
"COD","Tshabobo : Point","-2.879866123","23.65637779","CODs002416",3,1000
"COD","Uvira : Point","-3.3728836","29.1448793","CODs002906",3,1005
"COD","Baye","4.4579566","23.72257439","CODs004882",3,4458
"COD","Bili","4.557067784254","19.938536239788","CODs005179",3,4113
"COD","Bondo : Point","3.8164718","23.697829","CODr000000113",3,880
"COD","Bosobolo","4.1851509480329","19.876549693554","CODr000000011",3,4075
"COD","Boyabu","-2.879866123","23.65637779","CODs005223",3,881
"COD","Faradje","3.7294433384493","29.718030486256","CODs002677",3,4371
"COD","Gbadolite","4.2727035396836","21.033323854208","CODs005144",3,4048
"COD","Gboko","4.6884396651795","20.364404430913","CODs990213",3,4376
"COD","Inke","4.1991842236517","21.015232601768","CODs005128",3,906
"COD","Kanzawi","4.1313389121422","22.457142312181","CODs990214",3,4046
"COD","Libenge : Territoire","3.6415601908212","18.629515059292","20COD403034",2,4051
"COD","Mbito","4.1784776668209","22.820484536501","CODs004766",3,4047
"COD","Mboti","-2.879866123","23.65637779","CODs005224",3,962
"COD","Mobayi Mbongo","4.295061064738","21.209104601294","CODs005145",3,4049
"COD","Mole","4.1362924364251","18.803581115527","CODs002391",3,967
"COD","Monga","4.2030293041461","22.82848963514","CODs005177",3,4044
"COD","Ndu","4.7111626919306","22.820061055678","CODs005160",3,4045
"COD","Nzeret","4.2833438867233","22.625345159322","CODr000000136",3,4043
"COD","Yakoma","4.0937955329732","22.437445790541","CODr000000023",3,4050
"COD","Zongo and Worobe","3.971459","23.3978499","CODs005172",3,1011
"COD","Mbanza Ngungu","-5.2450244","14.8571368","CODr000000038",3,961
"COD","Haut-Katanga : Province","-11.705291709887","27.484563941438","20COD707",1,4017
"COD","Haut-Uele : Province","3.5584815761713","28.629537678084","20COD504",1,4014
"COD","Ituri : Province","1.85","29.966667","20COD505",1,908
"COD","Kasai","-6.5167254354941","20.843260511756","20COD903",1,4018
"COD","Kasai-Central","-6.1507941052078","23.615111131221","20COD902",1,4019
"COD","Kasai-Oriental","-2.8437453","23.3823545","20COD802",1,918
"COD","Lomami","-6.1673149789842","24.523680433631","20COD804",1,4025
"COD","Lualaba","-10.796074888885","25.541014149785","20COD704",1,4024
"COD","Maniema : Province","-3.0730929","26.0413889","20COD063",1,956
"COD","Moba","-7.0368478","29.7628712","20COD706062",2,966
"COD","Nord-Kivu : Province","-0.7917729","29.0459927","20COD061",1,976
"COD","Pweto : Territoire","-8.3689994585126","28.843646725464","20COD707075",2,987
"COD","Sud-Kivu : Province","-3.011658","28.299435","20COD062",1,993
"COD","Tshopo : Province","0.5455462","24.9042208","20COD502",1,1004
"COD","Aru : Centre","2.8580758552297","30.840269671753","CODr000000018",3,4123
"COD","Nyunzu","-5.9609716622558","28.026121538132","CODr000000047",3,4067
"COD","Rumu","5.07","25.4","CODr000000125",3,4454
"COD","Bele","3.6016464005003","30.094901577104","CODs031856",3,4378
"COD","Mole-Zongo","3.971459","23.3978499","CODs005172",3,968
"COD","Gemena","3.2249463854382","19.795577788143","CODr000000041",3,4030
"COD","Bikoro","-0.73406414697336","18.140287287458","CODr000000098",3,4071
"COD","Bokungu","-0.60610319338752","22.312435136754","CODr000000163",3,4072
"COD","Bolomba","0.34138617560667","19.227280289132","CODr000000143",3,4073
"COD","Bomongo","1.1557678260184","18.344101409629","CODr000000131",3,4092
"COD","Fizi : Point","-4.09386","29.08267","CODs003870",3,900
"COD","Fungurume","-10.619996579571","26.315746470311","CODr000000010",3,4053
"COD","Idjwi: Territoire","-2.165851","29.056091","20COD062027",2,904
"COD","Kabalo","-6.05","26.916667","CODr000000099",3,4054
"COD","Kabare : Point","-2.4659779","28.817249","CODr000000166",3,910
"COD","Kailo: Territoire","-2.5520372070537","26.088694747469","20COD063026",2,912
"COD","Kakanda","-10.748663065223","26.417620405555","CODr000000042",3,4055
"COD","Kambove : Mulungwishi","-10.880617959327","26.595509643561","CODr000000063",3,4062
"COD","Kapata","-8.9521077833186","24.773962721229","CODr000000172",3,4056
"COD","Kasaji","-10.381648022205","23.448194558273","CODs005027",3,4057
"COD","Kasenga: Territoire","-7.271896","29.7454995","20COD707073",2,919
"COD","Kasongo: Territoire","-4.4238447","26.6700737","20COD063025",2,921
"COD","Kasumbalesa","-12.263594771289","27.791014518589","CODr000000090",3,4058
"COD","Katshia : Point","-6.879474038026","24.19166899219","CODs002414",3,924
"COD","Kisenge","-10.69333","23.1821309","CODs000134",3,939
"COD","Lubero : Point","-0.1549602","29.2437011","CODr000000104",3,948
"COD","Lukolela","-1.081538562434","17.129881605506","CODr000000158",3,4107
"COD","Lusuku : Point","-7.3294619","23.9001141","CODs002415",3,954
"COD","Makanza","1.5881461251717","19.103026203811","CODr000000015",3,4077
"COD","Manono : Ankoro","-7.2719335310169","27.463620565832","CODr000000139",3,4063
"COD","Masisi : Point","-1.3984294","28.8159812","CODr000000029",3,959
"COD","Mbandaka","0.0265717","18.2970692","CODr000000128",3,960
"COD","Mokambo","-12.428820945796","28.343539007526","CODr000000058",3,4064
"COD","Musonoie","-10.684721817053","25.438175579356","CODr000000086",3,4066
"COD","Mwenga : Point","-3.2943081","28.1005632","CODr000000164",3,971
"COD","Pangi : Territoire","-3.1764795","26.6291718","20COD063024",2,984
"COD","Rutshuru : Point","-1.1855697","29.4469508","CODr000000026",3,989
"COD","Sandoa","-9.6945417737878","22.868469256644","CODr000000043",3,4069
"COD","Walikale : Point","-1.4296737","28.0742249","CODr000000141",3,1008
"COD","Aba : Point","3.8685895","30.2224227","CODs002678",3,859
"COD","Aga","3.5530874159763","30.684454499526","CODs026828",3,4038
"COD","Ariwara : Point","3.1368821","30.7062535","CODs002683",3,862
"COD","Bangalu","4.9628566565882","27.418618262505","CODs002672",3,4082
"COD","Bitima","4.3512180001652","28.638110546108","CODs031845",3,4083
"COD","Buta","2.8045317","24.7499112","CODr000000102",3,883
"COD","Doruma : Point","4.7284265","27.6845508","CODs002681",3,888
"COD","Dungu (Kaka1)","3.6071132","28.5622893","CODs000129",3,895
"COD","Dungu-Centre","3.6071132","28.5622893","20COD504043",2,894
"COD","Duru","4.2530658532716","28.759924548792","CODs004820",3,4084
"COD","Gangala","4.6935326781742","27.524250854815","CODs002674",3,4085
"COD","Ingbokolo : Point","3.3974175","30.7637298","CODs004782",3,905
"COD","Isiro","2.7722364","27.6082774","CODs004859",3,907
"COD","Meri","3.8481220657726","30.223332378038","CODs031851",3,4010
"COD","Mogoroko","4.4542997098657","28.766068824527","CODs026831",3,4088
"COD","Mogoroko 1","4.413386743192","28.970448983693","CODs026832",3,4090
"COD","Mosombo","2.7475957553424","27.597797063595","CODr000000186",3,4089
"COD","Niangara","3.6732330618885","27.859129719436","CODr000000203",3,4079
"COD","Sugba","5.0067720339097","27.419319307543","CODs026833",3,4039
"COD","Kisangani","0.54354183924262","25.18505718559","CODr000000056",3,4031
"DEN","Denmark : Dispersed in the country / territory","56.26392","9.501785","DNK",0,1013
"DJB","Djibouti : Point","11.5720765","43.1456475","DJIs003221",3,1017
"DJB","Ali-Addeh : Point","11.825138","42.590275","DJIs000143",3,1014
"DJB","Hol-Hol : Point","11.3078768","42.9295323","DJIs000145",3,1018
"DJB","Obock : Pont","0","0","DJIs000146",3,3620
"DMA","Dominica","15.318744876072","-61.355367845119","DMA",0,4530
"DOM","Dominican Republic : Dispersed in the country / territory","18.735693","-70.162651","DOM",0,1019
"ECU","Ecuador : Dispersed in the country / territory","-1.831239","-78.183406","ECU",0,1023
"ARE","Cairo : Muhafazah - Governorate","30.0444196","31.2357116","20EGY001",1,1042
"ARE","Giza : Muhafazah - Governorate","29.877325802466","30.808366607568","20EGY021",1,1049
"ARE","Kalyobiya : Muhafazah - Governorate","30.3292368","31.2168466","20EGY014",1,1056
"ARE","Alexandria : Muhafazah - Governorate","31.2000924","29.9187387","20EGY002",1,1037
"ARE","Al Sharqia : Muhafazah - Governorate","30.572909351019","31.497302784484","20EGY013",1,1035
"ARE","Aswan : Muhafazah - Governorate","24.088938","32.8998293","20EGY028",1,1038
"ARE","El-Beheira : Muhafazah - Governorate","30.8480986","30.3435506","20EGY018",1,1046
"ARE","Luxor : Muhafazah - Governorate","25.6872431","32.6396357","20EGY029",1,1058
"ARE","Matrouh : Muhafazah - Governorate","29.569635","26.419389","20EGY033",1,1059
"ARE","Monofiya : Muhafazah - Governorate","30.5972455","30.9876321","20EGY017",1,1061
"ARE","Qena : Muhafazah - Governorate","26.155061","32.7160121","20EGY027",1,1065
"ARE","Red Sea : Muhafazah - Governorate","25.1076838","33.7964613","20EGY031",1,1066
"ARE","South Sinai : Muhafazah - Governorate","29.168182224079","33.931837354419","20EGY035",1,1069
"ARE","Suez : Muhafazah - Governorate","29.9668343","32.5498069","20EGY004",1,1070
"ARE","Dakahliya : Muhafazah - Governorate","31.0832017","31.4913182","20EGY012",1,1043
"ARE","Fayoum : Muhafazah - Governorate","29.4170165","30.7120023","20EGY023",1,1047
"ARE","Ismailia : Muhafazah - Governorate","30.5964923","32.2714587","20EGY019",1,1054
"ARE","Asyut : Muhafazah - Governorate","27.1783117","31.1859257","20EGY025",1,1039
"ARE","Egypt : Dispersed in the country / territory","26.820553","30.802498","EGY",0,1045
"ARE","Beni Suef : Muhafazah - Governorate","29.0661274","31.0993845","20EGY022",1,1041
"ARE","Damietta : Muhafazah - Governorate","31.4175388","31.8144434","20EGY011",1,1044
"ARE","Gharbeya : Muhafazah - Governorate","30.8753556","31.03351","20EGY016",1,1048
"ARE","Kafr El Shiekh : Muhafazah - Governorate","31.1063198","30.9419751","20EGY015",1,1055
"ARE","Menia : Muhafazah - Governorate","28.148193130687","30.470498102148","20EGY024",1,1060
"ARE","Port-Said : Muhafazah - Governorate","31.2652893","32.3018661","20EGY003",1,1064
"ARE","Sohag : Muhafazah - Governorate","26.5590737","31.6956705","20EGY026",1,1068
"ARE","North Sinai : Muhafazah - Governorate","30.6084723","33.617577","20EGY034",1,1063
"ARE","New Valley : Muhafazah - Governorate","24.5455638","27.1735316","20EGY032",1,1062
"SAL","El Salvador : Dispersed in the country / territory","13.794185","-88.89653","SLV",0,1072
"ERT","Asmara : Point","15.3228767","38.9250517","ERIs003232",3,1080
"ERT","Gash Barka : Zoba - Region","15.4068825","37.6386622","20ERI009",1,1086
"ERT","Emkulu : Point","15.39719963","39.08718872","ERIr000000017",3,1085
"EST","Estonia : Dispersed in the country / territory","58.595272","25.013607","EST",0,1089
"SWA","Eswatini : Dispersed in the country / territory","-26.522503","31.465866","SWZ",0,3039
"SWA","Malindza : Point","-26.404408","31.7711685","SWZs001512",3,3040
"ETH","Addis Ababa : Astedader akabibi - Chartered city","8.9806034","38.7577605","20ETH014",1,1097
"ETH","Bambasi Camp : Point","0","0","ETHs004591",3,1107
"ETH","Sherkole : Point","10.66670036","34.83330154","ETHs000167",3,1145
"ETH","Asaita : Point","11.5505858","41.4362457","ETHs003861",3,1103
"ETH","Bokolmanyo : Point","4.545546","41.5362656","ETHs004000",3,1111
"ETH","Adiharush : Point","8.626703262","39.63755417","ETHs004073",3,1098
"ETH","Awbarre : Point","9.7855031","43.2207073","ETHs000168",3,1105
"ETH","Berhale : Point","13.8636044","40.0210039","ETHs003862",3,1110
"ETH","Hitsats","8.626703262","39.63755417","ETHs004634",3,1127
"ETH","Mai-Ayni : Point","8.626703262","39.63755417","ETHs003858",3,1136
"ETH","Shimelba (Shire/Shiraro) : Point","14.3969633","37.77425","ETHs003014",3,1146
"ETH","Tigray Region","13.4973326","39.423662","20ETH001",1,4441
"ETH","Amhara Region","11.660833","37.957778","20ETH003",1,4439
"ETH","Borena : Awrajja - Zone","4.7234632","38.9876741","21ETH004012",2,1114
"ETH","Buramino : Point","8.626703262","39.63755417","ETHs004110",3,1115
"ETH","Ethiopia : Dispersed in the country / territory","9.145","40.489673","ETH",0,1119
"ETH","Ethiopia: Internally Displaced Persons : Countrywide - Conflict induced","7.8938589991677","39.023426771164","ETH",0,4296
"ETH","Gure Shembolla : Point","9.52616","34.49781","ETHs033344",3,3969
"ETH","Jewi : Point","8.15199","34.70351833","ETHs008605",3,3928
"ETH","Kebribeyah : Point","8.626703262","39.63755417","ETHs000164",3,1132
"ETH","Nguenyyiel : Point","0","0","ETHs028884",3,3624
"ETH","Oromia","8.4653299159787","39.260598202753","20ETH004",1,4438
"ETH","Somali Region","6.8537867375839","44.849663292186","20ETH005",1,4469
"ETH","South Omo - Kangaten","5.17","35.93","ETHs033348",3,3970
"ETH","Tongo Camp : Point","34.055","-118.366389","ETHs004111",3,1149
"ETH","Tsore: Point","0","0","ETHs008604",3,3587
"ETH","Dollo Ado Transit Centre : Point","4.2025596872915","42.032588511039","ETHs028053",3,1120
"ETH","Hilaweyn : Point","4.3642581","41.8650435","ETHs004109",3,1126
"ETH","Kobe Camp : Point","4.4774701","41.7432283","ETHs005120",3,1133
"ETH","Melkadida : Point","4.5188826","41.7183345","ETHs004074",3,1137
"ETH","Sheder : Point","9.691027","43.1233099","ETHs003860",3,1144
"ETH","Kule : Point","8.28338","34.25092","ETHs004636",3,3927
"ETH","Okugo : Point","6.492319444","35.13235278","ETHs004631",3,1140
"ETH","Pugnido : Point","7.64825","34.26808","ETHs000162",3,3926
"ETH","Pugnido 2 : Point","7.67918","34.24729","ETHs028020",3,3930
"ETH","Tierkidi : Point","8.27517","34.27598","ETHs004672",3,3925
"FIJ","Suva : Point","-18.1248086","178.4500789","FJIr000000017",3,1156
"FIN","Finland : Dispersed in the country / territory","61.92411","25.748151","FIN",0,1157
"FRA","France : Dispersed in the country / territory","46.227638","2.213749","FRA",0,1158
"GAB","Libreville : Point","0.4161976","9.4672676","GABr000000037",3,1183
"GAB","Franceville : Point","-1.6196441","13.6015463","GABr000000029",3,1172
"GAB","Port-Gentil : Point","-0.7351026","8.7591311","GABr000000010",3,1204
"GAB","Koulamoutou : Point","-1.1413444","12.4667204","GABr000000033",3,1176
"GAB","Lambarene : Point","-0.7015457","10.2403858","GABr000000046",3,1181
"GAB","Makokou : Point","0.5633173","12.857236","GABr000000048",3,1187
"GAB","Mitzic : Point","0.782292","11.5503832","GABr000000041",3,1190
"GAB","Moanda : Point","-1.5370282","13.2432632","GABs002364",3,1191
"GAB","Mouila : Point","-1.8697188","11.0542052","GABr000000031",3,1192
"GAB","Oyem : Point","1.5991751","11.5759672","GABr000000015",3,1202
"GAB","Ntoum : Point","0.3740355","9.7734455","GABr000000019",3,1199
"GAB","Akieni : Point","1.183333039","13.88333321","GABr000000007",3,1159
"GAM","Banjul","13.4548761","-16.5790323","GMBs003258",3,1212
"GAM","Gambia : Dispersed in the country / territory","13.443182","-15.310139","GMB",0,1215
"GAM","Kombo Central","13.270850716761","-16.643886350024","20GMB003006",2,4345
"GAM","Kanifing","13.457829674975","-16.680033370318","20GMB005001",2,4343
"GAM","Basse","13.3094412","-14.2192475","GMBs000822",3,1213
"GAM","Fulladu West","13.49110541651","-14.788753967705","20GMB004001",2,4341
"GEO","Georgia : Dispersed in the country / territory","32.1656221","-82.9000751","GEO",0,1225
"GEO","Abkhazia : Autonomous republic","42.315407","43.356892","20GEO001",1,1221
"GFR","Germany : Dispersed in the country / territory","51.165691","10.451526","DEU",0,1246
"GHA","Accra : District","5.6037168","-0.1869644","21GHA007004",2,1247
"GHA","Kumasi","6.6666004","-1.6162709","GHAr000000141",3,1259
"GHA","Western region environa","7.921330452","-1.204386234","21GHA015",1,1263
"GHA","Buduburam : Point","5.5251249767423","-0.4741934936928","GHAs026073",3,1251
"GHA","Central Region and its environs","0","0","21GHA005",1,1252
"GHA","Krisan : Point","4.9629987","-2.4616508","GHAs000828",3,1258
"GHA","Volta : Region","6.5781373","0.4502368","21GHA014",1,1262
"GHA","Ampain : Point","4.9705771045958","-2.4246986737517","GHAs004586",3,1248
"GHA","Egyeikroum : Point","7.921330452","-1.204386234","GHAs004584",3,1255
"GHA","Asanti Region","6.7470436","-1.5208624","21GHA002",1,1249
"GHA","Brong Ahafo","-","-",NA,NA,NA
"GHA","Eastern region environa","6.4089389836866","-0.46505704662791","21GHA006",1,3631
"GHA","Tamale","9.4329186","-0.8484524","GHAr000000215",3,1261
"GHA","Fetentaa : Point","7.4698628198489","-2.6705412255479","GHAs004585",3,1256
"GRE","Greece : Dispersed in the country / territory","39.074208","21.824312","GRC",0,1265
"GRN","Dispersed in country","12.565679","104.990963","KHM",0,261
"GUA","Guatemala : Dispersed in the country / territory","14.6349149","-90.5068824","GTM",0,1268
"GUA","Alta Verapaz","15.76193377","-90.19561259","21GTM016",1,4716
"GUA","Baja Verapaz","15.06164857","-90.36330809","21GTM015",1,4735
"GUA","Chimaltenango","14.76110292","-90.84934609","21GTM004",1,4728
"GUA","Chiquimula","14.5799043","-89.43530146","21GTM020",1,4738
"GUA","El Progreso","14.86978599","-90.1658721","21GTM002",1,4736
"GUA","Escuintla","14.20977867","-91.07717418","21GTM005",1,4729
"GUA","Guatemala","14.69363631","-90.529142","21GTM001",1,4734
"GUA","Huehuetenango","15.53633731","-91.3403131","21GTM013",1,4721
"GUA","Izabal","15.63387068","-88.99370052","21GTM018",1,4719
"GUA","Jalapa","14.61196991","-89.9335749","21GTM021",1,4737
"GUA","Jutiapa","14.14425457","-89.86235923","21GTM022",1,4731
"GUA","Petén","16.33322769","-90.20943533","21GTM017",1,4718
"GUA","Quetzaltenango","14.71953543","-91.78546315","21GTM009",1,4723
"GUA","Quiché","15.48183414","-90.81140934","21GTM014",1,4740
"GUA","Retalhuleu","14.39808125","-91.74004984","21GTM011",1,4725
"GUA","Sacatepéquez","14.60232566","-90.7384682","21GTM003",1,4732
"GUA","San Marcos","14.76663835","-92.02899265","21GTM012",1,4722
"GUA","Santa Rosa","14.13692447","-90.3854225","21GTM006",1,4730
"GUA","Sololá","14.67749611","-91.25922586","21GTM007",1,4727
"GUA","Suchitepéquez","14.60232566","-90.7384682","21GTM010",1,4726
"GUA","Totonicapán","15.09488785","-91.34143406","21GTM008",1,4724
"GUA","Zacapa","15.05144451","-89.46282081","21GTM019",1,4739
"GUI","Conakry : Special zone","9.6411855","-13.5784012","20GIN002",1,1273
"GUI","Forecariah","9.4344715","-13.0904353","GINr000000213",3,1275
"GUI","Kindia","10.02220368762","-12.841766762681","20GIN005",1,4504
"GUI","Kouankan 2","8.4455277062048","-9.1387774082737","GINs000966",3,1281
"GUI","Nzerekore","7.7497040576011","-8.7874147974525","20GIN008",1,4501
"GUI","Lola","7.8022353","-8.5336525","GINs000980",3,1284
"GUI","Kissidougou","9.1913942849843","-10.102681401407","GINr000000083",3,3632
"GNB","Bissau : Autonomous sector","11.8816553","-15.6177942","GNBs003262",3,1299
"GNB","Guinea-Bissau : Dispersed In the country/territory","11.803749","-15.180413","GNB",0,1308
"GUY","Guyana : Dispersed in the country / territory","4.860416","-58.93018","GUY",0,1331
"HAI","Haiti : Dispersed in the country / territory","18.971187","-72.285215","HTI",0,1339
"HON","Honduras : Dispersed in the country / territory","15.199999","-86.241905","HND",0,1350
"HON","Atlántida: Departamento","15.7044684","-87.37638459","20HND001",1,4741
"HON","Choluteca: Departamento","13.27007888","-87.26945052","20HND006",1,4745
"HON","Colón: Departamento","15.71048702","-85.94642406","20HND002",1,4742
"HON","Comayagua : Departamento","14.5534828","-87.6186379","20HND003",1,1349
"HON","Copán: Departamento","14.81489611","-88.84662854","20HND004",1,4743
"HON","Cortés: Departamento","15.39203808","-87.95208073","20HND005",1,4744
"HON","El Paraíso: Departamento","13.96186425","-86.30811266","20HND007",1,4746
"HON","Francisco Morazán: Departamento","14.44469958","-87.17956889","20HND008",1,4747
"HON","Intibucá: Departamento","14.16357281","-88.24740002","20HND010",1,4749
"HON","La Paz: Departamento","14.1083959","-87.88275152","20HND012",1,4750
"HON","Lempira: Departamento","14.34216516","-88.60347545","20HND013",1,4751
"HON","Ocotepeque: Departamento","14.49679458","-89.07547396","20HND014",1,4752
"HON","Olancho: Departamento","14.69797856","-86.06348135","20HND015",1,4753
"HON","Santa Bárbara: Departamento","15.15023869","-88.2801145","20HND016",1,4754
"HON","Valle: Departamento","13.40923375","-87.55165594","20HND017",1,4755
"HON","Yoro: Departamento","15.30697327","-87.24354833","20HND018",1,4756
"HUN","Hungary : Dispersed in the country / territory","47.162494","19.503304","HUN",0,1364
"ICE","Iceland : Dispersed in the country / territory","64.963051","-19.020835","ISL",0,1370
"IND","India : Dispersed in the country / territory","20.593684","78.96288","IND",0,1376
"IND","Tamil Nadu : State","11.1271225","78.6568942","20IND030",1,1378
"INS","Indonesia : Dispersed in the country / territory","-0.789275","113.921327","IDN",0,1392
"INS","Jakarta and Surrounding Areas (Province: DKI Jakarta, Jawa Barat, Banten)","-6.2393530626896","106.84031545529","20IDN006",1,3639
"INS","Jawa Tengah : Provinsi - Province","-6.99306","110.42083","20IDN010",1,3641
"INS","Jawa Timur","-7.24917","112.75083","20IDN011",1,1401
"INS","Kepulauan Riau : Provinsi - Province","3.9456514","108.1428669","20IDN018",1,1405
"INS","Nusa Tenggara Timur : Provinsi - Province","-8.6573819","121.0793705","20IDN023",1,1411
"INS","Riau : Provinsi - Province","0.2933469","101.7068294","20IDN026",1,1414
"INS","Sulawesi Selatan : Provinsi - Province","-3.6687994","119.9740534","20IDN028",1,1419
"INS","Sumatera Utara : Provinsi - Province","3.5995911091844","98.679949838954","20IDN032",1,3637
"INS","Bali : Provinsi - Province","-8.4095178","115.188916","20IDN002",1,1379
"INS","Aceh : Provinsi - Province","5.54167","95.33333","20IDN001",1,3638
"IRN","Ardakan : Shahrestan - County","32.3082212","54.0085616","20IRN030002",2,1433
"IRN","Bani Najjar : Point","32.5007782","54.2942009","IRNs004689",3,1435
"IRN","Bardsir : Shahrestan - County","29.9384731","56.5728597","20IRN013006",2,1436
"IRN","Dalaki : Point","29.42918968","51.28884888","IRNs001065",3,1439
"IRN","Islamic Republic of Iran : Dispersed in the country / territory","32.5007782","54.2942009","IRN",0,1441
"IRN","Meybod : Shahrestan - County","32.2487226","54.0079341","20IRN030008",2,1462
"IRN","Mohajerin : Point","35.07410049","48.61669922","IRNs006125",3,1463
"IRN","Rafsanjan : Shahrestan - County","30.3548893","56.002705","20IRN013017",2,1468
"IRN","Sarvestan : Shahrestan - County","29.27350044","53.22029877","20IRN006026",2,1470
"IRN","Saveh : Shahrestan - County","35.0236107","50.3585065","20IRN019009",2,1471
"IRN","Taft : Shahrestan - County","31.74710083","54.20880127","20IRN030009",2,1478
"IRN","Torbat e jam : Shahrestan - County","35.2316863","60.6401218","20IRN024027",2,1480
"IRN","Abazar : Point","28.9780255","50.8379918","IRNs006124",3,1430
"IRN","Bezileh : Point","32.5007782","54.2942009","IRNs001061",3,1437
"IRN","Dilzeh : Point","35.06370163","47.96609879","IRNs001067",3,1440
"IRN","Jahrom : Shahrestan - County","28.5177435","53.5743866","20IRN006011",2,1449
"IRN","Sonqor : Shahrestan - County","34.7848053","47.59115601","20IRN014014",2,1475
"IRN","Sultanieh : Point","36.43479919","48.79759979","IRNs001079",3,1477
"IRN","Varmahang : Point","34.79589844","46.88489914","IRNs001082",3,1481
"IRN","Ziveh : Point","38.12519836","48.2580986","IRNs001083",3,1486
"IRN","Khuzestan : Ostan - Province","31.4360149","49.041312","20IRN015",1,1456
"IRN","Tehran : Shahrestan - County","35.6891975","51.3889736","20IRN028015",2,1479
"IRQ","Al-Karkh District: Baghdad Governorate","33.321566282869","44.378074931911","20IRQ007004",2,4155
"IRQ","Erbil District: Erbil Governorate","36.190649105242","44.01324898525","20IRQ011003",2,4169
"IRQ","Kerbala District : Kerbala Governorate","32.6068464","44.0103922","20IRQ012003",2,1551
"IRQ","Kerbala Governorate","32.607003835174","44.010658463289","20IRQ012",1,3960
"IRQ","Kufa District: Najaf Governorate","32.042046156133","44.373554372273","20IRQ017001",2,4184
"IRQ","Najaf District : Najaf Governorate","32.027376","44.3331165","20IRQ017003",2,1562
"IRQ","Sulaymaniyah District: Sulaymaniyah Governorate","35.542965118647","45.457321177942","20IRQ005004",2,4201
"IRQ","Iraq : Dispersed in the country / territory","33.223191","43.679291","IRQ",0,1534
"IRQ","Al-Resafa District: Baghdad Governorate","33.356630013175","44.395776868849","20IRQ007002",2,4154
"IRQ","Kirkuk District : Kirkuk Governorate","35.449990150857","44.380894576284","20IRQ013002",2,4180
"IRQ","Mousl District: Ninewa Governorate","36.333985833356","43.100956575673","20IRQ015004",2,4188
"IRQ","Ain Al-Tamur Districe: Kerbala Governorate","32.449720687255","43.564109851619","20IRQ012001",2,4176
"IRQ","Abu Ghraib District: Baghdad Governorate","33.296276221618","44.078556289776","20IRQ007009",2,4152
"IRQ","Adhamiya-Istiqlal District: Baghdad Governorate","33.369118075413","44.36179487375","20IRQ007001",2,4153
"IRQ","Al Sader District: Baghdad Governorate","33.387190036268","44.477695792151","IRQr000009981",3,4129
"IRQ","Al-Ba'aj District: Ninewa Governorate","36.050285577906","41.726811527522","20IRQ015001",2,4186
"IRQ","Al-Hai District: Wassit Governorate","32.154654662298","46.048245239883","20IRQ016001",2,4206
"IRQ","Al-Hindiya District: Kerbala Governorate","32.541499148464","44.221535266867","20IRQ012002",2,4177
"IRQ","Al-Musayab District: Babylon Governorate","32.770689463685","44.287107299581","20IRQ006004",2,4150
"IRQ","Al-Suwaira District: Wassit Governorate","32.940778310905","44.775844705941","20IRQ016004",2,4207
"IRQ","Arbat Camp : Sulaymaniyah Governorate","35.37637","45.6091","IRQs010035",3,4587
"IRQ","Baghdad Governorate","33.3128057","44.3614875","20IRQ007",1,1503
"IRQ","Balad District: Salah al-Din Governorate","33.997735935547","44.159002632843","20IRQ018004",2,4196
"IRQ","Baqoba District: Diyala Governorate","33.732442063962","44.481498667265","20IRQ010004",2,4161
"IRQ","Basrah : Basrah Governorate","30.514300313609","47.798063510088","20IRQ002002",2,3860
"IRQ","Chamchamal District : Sulaymaniyah Governorate","35.524744095065","44.823195221522","20IRQ005001",2,4133
"IRQ","Darashakran Camp : Erbil Governorate","36.47112","43.89177","IRQs004655",3,4590
"IRQ","Diwaniya District: Qadisiya Governorate","31.974456777848","44.907231483865","20IRQ004002",2,4193
"IRQ","Duhok District : Duhok Governorate","36.852559983636","42.954278091498","20IRQ008002",2,4167
"IRQ","Heet District: Anbar Governorate","33.645705680106","42.82492848323","20IRQ001007",2,4148
"IRQ","Hilla District: Babylon Governorate","32.497667263926","44.432858068514","20IRQ006002",2,4151
"IRQ","Kalar District: Sulaymaniyah Governorate","34.632805550573","45.330619008211","20IRQ005005",2,4200
"IRQ","Kawergosk Camp : Erbil Governorate","36.34488","43.8113","IRQs004654",3,4591
"IRQ","Khalis District: Diyala Governorate","33.84039147896","44.520983230492","20IRQ010001",2,4160
"IRQ","Kut District: Wassit Governorate","32.502926963461","45.8542076933","20IRQ016002",2,4208
"IRQ","Mada’In District: Baghdad Governorate","33.100834729329","44.586603076129","20IRQ007005",2,4130
"IRQ","Mahmoudiya District : Baghdad Governorate","33.048514018478","44.35282316225","20IRQ007008",2,3828
"IRQ","Mergasur District: Erbil Governorate","36.835830965794","44.309722454463","20IRQ011005",2,4172
"IRQ","Nassriya District: Thi-Qar Governorate","31.030665377972","46.281056672749","20IRQ009002",2,4205
"IRQ","Ninewa Governorate","36.229574","42.2362435","20IRQ015",1,1563
"IRQ","Qadissiya Governorate","32.043691","45.1494505","20IRQ004",1,1570
"IRQ","Qushtapa Camp : Erbil Governorate","35.98379","44.0367","IRQs004656",3,4589
"IRQ","Samarra District: Salah al-Din Governorate","34.149549644186","43.907782091174","20IRQ018005",2,4197
"IRQ","Shaqlawa District: Erbil Governorate","36.399592826704","44.317011191828","20IRQ011006",2,4173
"IRQ","Sinjar District: Ninewa Governorate","36.309675437591","41.869892027041","20IRQ015007",2,4189
"IRQ","Tarmia District : Baghdad Governorate","33.672991191758","44.362477461173","20IRQ007007",2,3829
"IRQ","Tikrit District: Salah al-Din Governorate","34.608289326418","43.696238576434","20IRQ018006",2,4198
"IRQ","Wassit Governorate","32.6024094","45.7520985","20IRQ016",1,1582
"IRQ","Zakho District: Duhok Governorate","37.140932586633","42.679500049863","20IRQ008004",2,4166
"IRQ","Gawilan Camp : Duhok Governorate","36.3383","43.61544","IRQs004653",3,4592
"IRQ","Abul Khasib District: Basrah Governorate","30.317431389056","48.038805939935","20IRQ002001",2,4157
"IRQ","Al-Zubair District: Basrah Governorate","30.382388028856","47.715434312398","20IRQ002006",2,4158
"IRQ","Amedi District : Duhok Governorate","37.091840859011","43.487128379264","20IRQ008001",2,3834
"IRQ","Basirma Camp : Erbil Governorate","36.49545","44.34031","IRQs004657",3,4593
"IRQ","Basrah Governorate","30.5081033","47.7834888","20IRQ002",1,1505
"IRQ","Choman District: Erbil Governorate","36.636647267446","44.893338126453","20IRQ011002",2,4168
"IRQ","Darbandihkan District: Sulaymaniyah Governorate","35.095265325994","45.697724658949","20IRQ005002",2,4199
"IRQ","Dokan : Sulaymaniyah Governorate","35.942857134574","44.959707894664","20IRQ005003",2,3844
"IRQ","Erbil Governorate","36.185493773279","44.005348202381","20IRQ011",1,4192
"IRQ","Halabja District : Sulaymaniyah Governorate","35.171684235994","45.988631534306","20IRQ005010",2,4136
"IRQ","Khanaqin District : Diyala Governorate","34.35527981024","45.373736572433","20IRQ010005",2,3832
"IRQ","Koysnjaq District: Erbil Governorate","36.074580339924","44.627643381792","20IRQ011004",2,4171
"IRQ","Makhmour District: Erbil Governorate","35.78031712521","43.579948384323","20IRQ011001",2,4218
"IRQ","Penjwin District : Sulaymaniyah Governorate","35.615056845099","45.958696260271","20IRQ005006",2,3846
"IRQ","Pshdar District : Sulaymaniyah Governorate","36.365792146536","45.109091921616","20IRQ005007",2,3847
"IRQ","Rania District : Sulaymaniyah Governorate","36.22690162307","44.892440852725","20IRQ005008",2,4134
"IRQ","Rutbah DIstrict: Anbar Governorate","33.041261979075","40.278768281369","20IRQ001004",2,4142
"IRQ","Said Sadiq District : Sulaymaniyah Governorate","35.372064604431","45.85909652987","IRQr000001962",3,4135
"IRQ","Sharbazher District : Sulaymaniyah Governorate","35.762323165778","45.610488531459","20IRQ005009",2,3850
"IRQ","Shatt Al-Arab District : Basrah Governorate","30.789737784929","47.881258246436","20IRQ002007",2,3831
"IRQ","Soran District: Erbil Governorate","36.659016625294","44.552009036543","20IRQ011007",2,4174
"IRQ","Sumel District: Duhok Governorate","36.864073820743","42.847576850101","20IRQ008003",2,4165
"IRQ","Taji District: Baghdad Governorate","33.533332695756","44.268076105533","20IRQ007006",2,4156
"IRQ","Akre Camp : Duhok Governorate","36.7354","43.8795","IRQs004652",3,4646
"IRQ","Al-Qaim District: Anbar Governorate","34.322015000031","41.168528216268","20IRQ001002",2,4138
"IRQ","Al-Rifa'I District: Thi-Qar Governorate","31.697547234483","46.116953196372","20IRQ009003",2,4203
"IRQ","Anbar Governorate","32.5597614","41.9196471","20IRQ001",1,1490
"IRQ","Babylon Governorate","32.468191","44.5501935","20IRQ006",1,1499
"IRQ","Bardarash : Duhok Governorate","36.502242245328","43.585108561217","IRQr000016521",3,4568
"IRQ","Diyala Governorate","33.7733487","45.1494505","20IRQ010",1,1536
"IRQ","Domiz 2 Camp : Duhok Governorate","36.7643","42.89599","IRQs010034",3,4595
"IRQ","Domiz Camp : Duhok Governorate","36.7822","42.8913","IRQs004242",3,4594
"IRQ","Duhok Governorate","37.133389","43.1309888","20IRQ008",1,1512
"IRQ","Kirkuk Governorate","35.4655761","44.3803921","20IRQ013",1,1552
"IRQ","Missan Governorate","31.8496076","47.1459597","20IRQ014",1,1556
"IRQ","Muthanna Governorate","29.9133171","45.2993862","20IRQ003",1,1560
"IRQ","Najaf Governorate","32.004680081559","44.332923607702","20IRQ017",1,4185
"IRQ","Salah al-Din Governorate","34.5337527","43.483738","20IRQ018",1,1571
"IRQ","Sulaymaniyah Governorate","35.5641122","45.3756114","20IRQ005",1,1574
"IRQ","Telafar District: Ninewa Governorate","36.359081259492","42.403345473573","20IRQ015008",2,4190
"IRQ","Thi-Qar Governorate","31.1042292","46.3624686","20IRQ009",1,1580
"IRQ","Al-Shatra District: Thi-Qar Governorate","31.386167595997","46.168278958528","20IRQ009004",2,4204
"IRQ","Suq Al-Shoyokh District : Thi-Qar Governorate","30.85","46.5","20IRQ009005",2,4586
"IRQ","Al-Daur District: Salah al-Din Governorate","34.48212230125","44.358432979898","20IRQ018001",2,4194
"IRQ","Al-Qurna District : Basrah Governorate","31.02032551702","47.426254961543","20IRQ002005",2,3830
"IRQ","Beji District: Salah al-Din Governorate","35.01447306057","43.447275556384","20IRQ018003",2,4195
"IRQ","Daquq District: Kirkuk Governorate","35.141646345848","44.444130965304","20IRQ013001",2,4178
"IRQ","Falluja District: Anbar Governorate","33.3390486246","43.791389771498","20IRQ001001",2,4145
"IRQ","Ramadi District: Anbar Governorate","33.417547540606","43.283993824516","20IRQ001003",2,4149
"IRQ","Akre District: Ninewa Governorate","36.734200519109","43.885252391302","20IRQ015010",2,4221
"IRQ","Al-Hamdaniya District : Ninewa Governorate","36.24","43.44","20IRQ015002",2,4584
"IRQ","Al-Maimouna District: Missan Governorate","31.518080568832","46.926601471792","20IRQ014004",2,4181
"IRQ","Al-Mejar Al-Kabi District: Missan Governorate","31.569702897214","47.176154510482","20IRQ014005",2,4182
"IRQ","Al-Midaina: Basrah Governorate","30.941211705427","47.259412246805","IRQr000013580",3,4567
"IRQ","Ammara District: Missan Governorate","31.850675164776","47.156424721346","20IRQ014001",2,4183
"IRQ","Ana District: Anbar Governorate","34.372798276159","41.989532683791","20IRQ001005",2,4143
"IRQ","Dibis District: Kirkuk Governorate","35.66784738631","44.078998220846","IRQr000003614",3,4179
"IRQ","Haditha District: Anbar Governorate","34.092932771286","42.371671539123","20IRQ001006",2,4147
"IRQ","Khabat District: Erbil Governorate","36.266667313976","43.680133510913","20IRQ011003",2,4170
"IRQ","Rawanduz District : Erbil Governorate","36.6098255648","44.514700215538","20IRQ011007",2,4131
"IRQ","Shekhan District: Ninewa Governorate","36.88991724875","43.575503527341","20IRQ015006",2,4219
"IRQ","Tilkaif District: Ninewa Governorate","36.491475316456","43.125228641518","20IRQ015009",2,4191
"IRQ","Tooz District : Salah al-Din Governorate","34.78","44.65","20IRQ018007",2,4585
"IRQ","Makhmour Camp : Point","35.790113577543","43.589962864771","IRQs001085",3,1555
"IRE","Ireland : Dispersed in the country / territory","53.41291","-8.24389","IRL",0,1586
"ISR","Dispersed in country","12.565679","104.990963","KHM",0,261
"ITA","Italy : Dispersed in the country / territory","41.87194","12.56738","ITA",0,1623
"JAM","Jamaica : Dispersed in the country / territory","18.109581","-77.297508","JAM",0,1624
"JPN","Japan : Dispersed in the country / territory","36.204824","138.252924","JPN",0,1629
"JOR","Amman : Governorate","31.9565783","35.9456951","20JOR011",1,1631
"JOR","Balqa : Governorate","32.0577032","35.7660383","20JOR012",1,1633
"JOR","Irbid : Governorate","32.5454418","35.8571532","20JOR021",1,1635
"JOR","Aqabah : Governorate","29.5319199","35.0060842","20JOR034",1,1632
"JOR","Jarash : Governorate","32.2769016","35.9055502","20JOR023",1,1636
"JOR","Karak : Governorate","31.1648059","35.7618824","20JOR031",1,1637
"JOR","Maan : Governorate","30.1949577","35.7342418","20JOR033",1,1638
"JOR","Madaba : Governorate","31.71954","35.794109","20JOR014",1,1639
"JOR","Mafraq : Governorate","32.4185997","38.3165725","20JOR022",1,1640
"JOR","Mafraq : Zataari Camp","32.4185997","38.3165725","JORs004465",3,1641
"JOR","Tafilah : Governorate","30.835833","35.612222","20JOR032",1,1642
"JOR","Zarqa : Governorate","31.7515118","36.8680791","20JOR013",1,1643
"JOR","Jordan : Dispersed in the country / territory","30.585164","36.238414","JOR",0,1634
"JOR","Zarqa : Emirates Jordanian Camp (EJC)","31.7515118","36.8680791","JORs004587",3,1644
"JOR","Ajlun : Governorate","32.2561926","35.6969984","20JOR024",1,1630
"JOR","Zarqa: Azraq Camp","31.7515118","36.8680791","JORs004576",3,1645
"KAZ","Almaty : City","43.2220146","76.8512485","KAZs003279",3,1647
"KAZ","Almaty : Oblast - Province","43.2220146","76.8512485","20KAZ003",1,1646
"KAZ","Astana : City","51.1605227","71.4703558","KAZr000000195",3,1648
"KAZ","Kazakhstan : Dispersed in the country / territory","48.019573","66.923684","KAZ",0,1649
"KAZ","Pavlodar","52.2873032","76.9674023","20KAZ015",1,1651
"KAZ","South Kazakhstan : Oblast - Province","48.019573","66.923684","20KAZ016",1,1653
"KAZ","Zhambyl : Oblast - Province","42.8983715","71.3979891","20KAZ009",1,1655
"KEN","Garissa County","-0.312545538","39.59485086","20KEN007",1,4679
"KEN","Kakuma : Point","3.7167637","34.8568982","KENs001093",3,1664
"KEN","Kenya: Dispersed in the country / territory","-0.023559","37.906193","KEN",0,1658
"KEN","Nairobi : County","-1.2920659","36.8219462","20KEN047",1,1666
"KEN","Kalobeyei Settlement","3.76771","34.62204","KENs009176",3,4449
"KEN","Dagahaley : Point","0.1945993","40.2879598","KENs001088",3,1657
"KEN","Hagadera : Point","0.0925798","40.3190719","KENs001089",3,1659
"KEN","Ifo : Point","0.1106449","40.3162007","KENs001091",3,1660
"KEN","Turkana County","2.459722734","36.05648006","20KEN023",1,4660
"KOS","Kosovo (S/RES/1244 (1999)) : Dispersed in the country / territory","42.58150864","20.89153099","20SRB005",1,1668
"KUW","Kuwait City","29.375859","47.9774052","KWTr000000005",3,1670
"KGZ","Kyrgyzstan : Dispersed in the country / territory","41.20438","74.766098","KGZ",0,1674
"LVA","Latvia : Dispersed in the country / territory","56.879635","24.603189","LVA",0,1684
"LEB","Beirut : Mohafazah - Governorate","33.8886289","35.4954794","20LBN001",1,1691
"LEB","Beqaa : Mohafazah - Governorate","34.0156218","36.1762615","20LBN002",1,1692
"LEB","Mount Lebanon : Mohafazah - Governorate","33.9046635","35.6969984","20LBN003",1,1694
"LEB","North : Mohafazah - Governorate","34.4080795","36.0458437","20LBN005",1,1695
"LEB","South : Mohafazah - Governorate","39.3708927","-84.2132698","20LBN006",1,1696
"LES","Maseru","-29.3632188","27.5143603","LSOs015388",3,1698
"LES","Lesotho : Dispersed in the country / territory","-29.609988","28.233608","LSO",0,1697
"LBR","Montserrado : County","6.5525815","-10.5296115","20LBR030",1,1736
"LBR","Nimba : County","6.8427612","-8.6600586","20LBR033",1,1740
"LBR","Grand Bassa","6.2308452","-9.8124935","20LBR009",1,1719
"LBR","Margibi","6.5151875","-10.3048897","20LBR024",1,1732
"LBR","Sinoe","5.49871","-8.6600586","20LBR039",1,1753
"LBR","Bong","6.3567478793933","-10.572910224969","LBRs990071",3,1704
"LBR","Dispersed in country","12.565679","104.990963","KHM",0,261
"LBR","Grand Gedeh : County","5.9222078","-8.2212979","20LBR015",1,1721
"LBR","Maryland : County","4.7258878","-7.7416703","20LBR027",1,1733
"LBR","River Ghee : County","5.2604894","-7.87216","20LBR042",1,1747
"LBY","Tripoli","32.8872094","13.1913383","20LBY002011",2,1771
"LBY","Aljfara","32.55361872","13.07631638","20LBY002012",2,3682
"LBY","Zwara","12.086557313657","32.929695652393","20LBY002015",2,3698
"LBY","Misrata","32.3196827","15.1025075","20LBY002014",2,1765
"LBY","Al Jabal Al Gharbi","30.44481599","13.02100109","20LBY002016",2,3699
"LBY","Almargeb","32.40504785","13.83287621","20LBY002010",2,3685
"LBY","Azzawya","32.47420585","12.54354088","20LBY002013",2,3687
"LBY","Benghazi","31.65369265","20.56915298","20LBY001003",2,3688
"LBY","Sirte","31.189689","16.5701927","20LBY002008",2,1768
"LBY","Tobruk","32.090925858774","23.966479489692","20LBY001004",2,3695
"LBY","Wadi Ashshati","27.981018339126","12.581973527897","20LBY003018",2,3697
"LBY","Sebha","27.08266722","15.0182281","20LBY003019",2,3694
"LBY","Al Jabal Al Akhdar","32.1271249048","21.7439980453","20LBY001006",2,3681
"LBY","Alkufra","23.77987165","22.2645236","20LBY001007",2,3684
"LBY","Almarj","31.98311425","21.21585365","20LBY001002",2,3686
"LBY","Ejdabia","28.819338","21.35597181","20LBY001005",2,3690
"LBY","Aljufra","27.92839464","17.08496533","20LBY003017",2,3683
"LBY","Derna","31.902336","22.54390897","20LBY001001",2,3689
"LBY","Ghat","24.96263","10.179717","20LBY003021",2,3680
"LBY","Libya : Dispersed in the country / territory","26.3351","17.228331","LBY",0,1762
"LBY","Murzuq","25.916654","13.936562","20LBY003022",2,3692
"LBY","Nalut","31.8742348","10.9750484","20LBY002009",2,1766
"LBY","Ubari","26.583309","12.76698","20LBY003020",2,3696
"LIE","Liechtenstein : Dispersed in the country / territory","47.166","9.555373","LIE",0,1773
"LTU","Lithuania : Dispersed in the country / territory","55.169438","23.881275","LTU",0,1775
"LUX","Luxembourg : Dispersed in the country / territory","49.611621","6.1319346","LUX",0,1797
"MAD","Madagascar : Dispersed in the country / territory","-18.766947","46.869107","MDG",0,1799
"MLW","Dzaleka : Point","-13.6628274","33.8704301","MWIs001117",3,1806
"MLS","Kuala Lumpur : Wilayah Persekutuan - Federal territory","3.139003","101.686855","20MYS004",1,1826
"MLS","Sabah","5.9788398","116.0753199","20MYS012",1,1829
"MLI","Bamako : District","12.6392316","-8.0028892","20MLI009001",2,1833
"MLI","Gao : Region","16.2639807","-0.0279867","20MLI007",1,1837
"MLI","Mopti : Region","14.4874284","-4.1974627","20MLI005",1,1844
"MLI","Tombouctou : Region","16.7665887","-3.0025615","20MLI006",1,1847
"MLI","Kayes : Region","14.4367876","-11.4452717","20MLI001",1,1839
"MLI","Sikasso : Region","11.3223834","-5.6983979","20MLI003",1,1846
"MLI","Kidal : Region","18.4520713","1.4096535","20MLI008",1,1840
"MLI","Koulikoro : Region","12.8662046","-7.5599321","20MLI002",1,1841
"MLI","Menaka : Region","15.914983","2.401662","20MLI010",1,3633
"MLI","Segou : Region","13.4316597","-6.2482149","20MLI004",1,1845
"MTA","Community","35.874245741723","14.463226553506","MLT",0,1851
"MTA","Malta : Dispersed in the country / territory","35.937496","14.375416","MLT",0,1855
"MAU","Nouadhibou","20.941794979671","-17.036734847654","MRTr000000001",3,4792
"MAU","Nouakchott","18.074971042011","-15.963791880913","MRTr000000114",3,4791
"MAU","Mbera : Point","0","0","MRTs004241",3,1877
"MAU","Mauritania : Dispersed in the country / territory","21.00789","-10.940835","MRT",0,1876
"MTS","Mauritius","-20.267197878901","57.559909078505","MUS",0,3595
"MEX","Mexico : Dispersed in the country / territory","19.4326077","-99.133208","MEX",0,1882
"MCO","Monaco : Dispersed in the country / territory","43.737411","7.420816","MCO",0,1886
"MNG","Ulaanbaatar : Capital city","47.8863988","106.9057439","20MNG011",1,1888
"MNG","Mongolia : Dispersed in the country / territory","46.862496","103.846656","MNG",0,1887
"MNE","Danilovgrad : Opstina - Municipality","42.5537532","19.1077389","20MNE007",1,1895
"MNE","Podgorica : Opstina - Municipality","42.4304196","19.2593642","20MNE018",1,1906
"MNE","Bar : Opstina - Municipality","42.2040425","19.140438","20MNE002",1,1890
"MNE","Herceg Novi : Opstina - Municipality","42.4572478","18.5314753","20MNE009",1,1897
"MNE","Niksic : Opstina - Municipality","0","0","20MNE013",1,1902
"MNE","Tivat : Opstina - Municipality","42.4349809","18.7066398","20MNE021",1,1909
"MNE","Ulcinj : Opstina - Municipality","41.9310884","19.2147632","20MNE022",1,1910
"MNE","Kotor : Opstina - Municipality","42.424662","18.771234","20MNE011",1,1899
"MNE","Pljevlja : Opstina - Municipality","43.3582371","19.3512591","20MNE016",1,1904
"MNE","Andrijevica : Opstina - Municipality","42.7362477","19.7859556","20MNE001",1,1889
"MNE","Berane : Opstina - Municipality","42.8379344","19.8603732","20MNE003",1,1891
"MNE","Budva : Opstina - Municipality","42.2911489","18.840295","20MNE005",1,1893
"MNE","Kolasin : Opstina - Municipality","42.82458878","19.52041054","20MNE010",1,1898
"MNE","Montenegro : Dispersed in the country / territory","42.708678","19.37439","MNE",0,1896
"MNE","Plav : Opstina - Municipality","42.6001337","19.9407541","20MNE015",1,1903
"MNE","Rozaj : Opstina - Municipality","42.83982086","20.16337013","20MNE019",1,1907
"MNE","Cetinje : Opstina - Municipality","42.3930959","18.9115964","20MNE006",1,1894
"MNE","Zabljak","43.1555152","19.1226018","MNEr000000008",3,1911
"MOR","Morocco : Dispersed in the country / territory","34.6765892","-1.9206492","MAR",0,1915
"MOZ","Manica : Provincia","-19.5059787","33.438353","21MOZ004",1,1939
"MOZ","Maratane : Point","-16.64310074","37.16999817","MOZs002392",3,1941
"MOZ","Cabo Delgado : Provincia","-12.3335474","39.3206241","21MOZ001",1,1935
"MOZ","Gaza : Provincia","-23.0221928","32.7181375","21MOZ002",1,1937
"MOZ","Inhambane : Provincia","-23.8879561","35.3959879","21MOZ003",1,1938
"MOZ","Maputo Provincia : Provincia","-25.891968","32.6051351","21MOZ005",1,1940
"MOZ","Nampula : Provincia","-15.1266347","39.2687161","21MOZ007",1,1943
"MOZ","Niassa : Provincia","-12.7826202","36.6093926","21MOZ008",1,1944
"MOZ","Sofala : Provincia","-19.2039073","34.8624166","21MOZ009",1,1945
"MOZ","Tete : Provincia","-16.1328104","33.6063855","21MOZ010",1,1946
"MOZ","Zambezia : Provincia","-16.5638987","36.6093926","21MOZ011",1,1947
"MOZ","Mozambique","-17.875214542757","35.272094391995","MOZ",0,4448
"MYA","Bago (East) Region","18.2125951404","96.4838624044","21MMR007",1,4540
"MYA","Chin State","21.304987693431","92.822003872074","20MMR004",1,4319
"MYA","Kachin : State","26.385654768622","97.69502092173","20MMR001",1,1951
"MYA","Kayah State","19.2340663777","97.375221436","21MMR002",1,4541
"MYA","Kayin State","17.15159","97.78716","21MMR003",1,4539
"MYA","Magway : Region","20.4799430858","94.8163460768","21MMR009",1,4544
"MYA","Mon State","16.4087448483","97.5778510896","21MMR011",1,4542
"MYA","Rakhine : State","19.810093","93.9878427","20MMR012",1,1957
"MYA","Sagaing : Region","24.1690063197","95.3243262314","21MMR005",1,4545
"MYA","Shan (North) : State","23.370844540888","97.739173772572","20MMR015",1,4375
"MYA","Shan (South) : State","20.704125511083","97.874126102651","20MMR014",1,1960
"MYA","Tanintharyi Region","12.6692728686","98.7466870983","21MMR006",1,4543
"NAM","Namibia : Dispersed in the country / territory","-22.95764","18.49041","NAM",0,1964
"NAM","Osire : Point","-21.067094","17.3641866","NAMs001250",3,1981
"NRU","Nauru","-0.522778","166.931503","NRU",0,1983
"NRU","Regional Processing Centre","-0.54065021207896","166.9308078289","NRUs000001",3,1984
"NEP","Kathmandu : District","27.7172453","85.3239605","20NPL003006",2,1992
"NEP","Eastern Region","27.3309072","87.0624261","20NPL001",1,1990
"NEP","Nepal : Dispersed in the country / territory","28.394857","84.124008","NPL",0,1989
"NET","Netherlands : Dispersed in the country / territory","52.132633","5.291266","NLD",0,1999
"NZL","New Zealand : Dispersed in the country / territory","-40.900557","174.885971","NZL",0,2001
"NIC","Nicaragua : Dispersed in the country / territory","12.865416","-85.207229","NIC",0,2006
"NGR","Niamey : Capital district","13.5115963","2.1253854","20NER008",1,2043
"NGR","Agadez region","16.973763902404","7.9864744302379","20NER001",1,3853
"NGR","Tillabery region","14.207906404962","1.4574393701031","20NER006",1,3854
"NGR","Diffa","13.3132472","12.6158803","20NER002",1,2028
"NGR","Goure","13.983577","10.2628167","NERr000000023",3,2032
"NGR","Ayourou : Point","14.7328144","0.9104334","NERs004573",3,2020
"NGR","Camp Abala : Point","17.42407417","9.400633812","NERs001259",3,2026
"NGR","Mangaize : Point","14.6826997","1.9514657","NERs004228",3,2039
"NGR","Ouallam : Urban Site","14.310161837535","2.0903071551887","NERr000000057",3,4534
"NGR","Tabareybarey : Point","17.42407417","9.400633812","NERs004466",3,2046
"NGR","Tahoua region","14.889280157059","5.2603681615021","20NER005",1,3857
"NGR","Tillabery Urban site","14.210435022584","1.464670883428","NERs009695",3,4533
"NGR","Maradi region","13.497791169399","7.1069201429476","20NER004",1,3855
"NIG","Lagos : State","6.5243793","3.3792057","20NGA025",1,2068
"NIG","Kano","12.005105602274","8.5963941686043","20NGA020",1,4485
"NIG","FCT Abuja","8.8477230366965","7.1868427172851","20NGA015",1,4491
"NIG","Abia","5.1079426923457","7.3641014499673","20NGA001",1,4509
"NIG","Adamawa","9.4694405848938","12.422176793776","20NGA002",1,4496
"NIG","Borno","11.5097479","12.9789121","20NGA008",1,2058
"NIG","Enugu","6.4583661","7.5463885","20NGA014",1,2061
"NIG","Imo","5.5214533","6.9209135","20NGA017",1,2064
"NIG","Jigawa","12.5700315","8.9400589","NGAr000003632",3,2065
"NIG","Katsina","12.93313689657","7.6572688110352","20NGA021",1,4483
"NIG","Kwara","8.9847995","4.5624426","20NGA024",1,2067
"NIG","Niger","9.081999","8.675277","20NGA027",1,2070
"NIG","Ogun","7.0596008599359","3.284348743803","20NGA028",1,4492
"NIG","Yobe","12.1871412","11.7068294","20NGA036",1,2076
"NIG","Edo","6.4203592255069","5.8895595922852","20NGA012",1,4494
"NIG","Akwa Ibom","-","-",NA,NA,NA
"NIG","Anambra","6.2978642976752","6.9180085766601","20NGA004",1,4497
"NIG","Bayelsa","4.8972431267168","6.2925066755566","20NGA006",1,4565
"NIG","Benue","7.3616697438796","8.799780952871","20NGA007",1,4482
"NIG","Cross Rivers","6.1670315","8.6600586","20NGA009",1,2059
"NIG","Delta","5.93693","5.7049","20NGA010",1,4526
"NIG","Ebonyi","6.3246329201141","8.1254832597851","20NGA011",1,4564
"NIG","Ekiti","7.6022039493327","5.2526403618711","20NGA013",1,4563
"NIG","Kaduna","10.686677299186","7.4997916857523","20NGA019",1,4484
"NIG","Kogi","7.6555102625471","6.8168483422851","20NGA023",1,4495
"NIG","Nasarawa","8.3977132417666","8.5423391219412","20NGA026",1,4486
"NIG","Ondo","5.15061","6.918","20NGA029",1,4507
"NIG","Osun","7.5876504434821","4.5753076014278","20NGA030",1,4493
"NIG","Oyo","-1.033333","15.666667","COGs026825",3,4446
"NIG","Plateau","9.2350817","9.7232673","20NGA032",1,2074
"NIG","Rivers","5.2647130314436","7.0324264247629","20NGA033",1,4508
"NIG","Taraba","7.9868755","10.9807003","20NGA035",1,2075
"NIG","Bauchi","10.3009641","9.8236533","20NGA005",1,2056
"NIG","Sokoto","13.001570274427","5.2177709896187","20NGA034",1,4488
"NIG","Gombe","10.279142","11.1730615","20NGA016",1,2062
"NIG","Zamfara","12.192832304163","6.5491997723553","20NGA037",1,4487
"MCD","Gevgelija","41.1451892","22.4997467","MKDr000000070",3,3110
"MCD","Skopje : City","41.9973462","21.4279956","MKDr000000060",3,3142
"MCD","Vizbegovo : Point","42.0345314","21.4149195","MKDs008566",3,3155
"MCD","Bitola : Opstina - Municipality","41.0296773","21.3292164","21MKD003001",2,3097
"MCD","Gostivar : Opstina - Municipality","41.8025541","20.9089378","21MKD004003",2,3111
"MCD","Kavadarci : Opstina - Municipality","41.4329364","22.0088861","21MKD008004",2,3117
"MCD","Kicevo : Opstina - Municipality","41.5129112","20.9525065","21MKD007005",2,3118
"MCD","Kocani : Opstina - Municipality","41.9168048","22.4082849","21MKD001005",2,3119
"MCD","Kumanovo : Opstina - Municipality","42.1322895","21.7256936","21MKD002003",2,3123
"MCD","Negotino","41.4989985","22.0953297","MKDr000000059",3,3128
"MCD","Polin Dojran","41.1868211","22.7216602","MKDr000000034",3,3133
"MCD","Prilep : Opstina - Municipality","41.3440827","21.5527922","21MKD003008",2,3134
"MCD","Shtip","41.746429","22.199654","MKDr000000071",3,3141
"MCD","Tetovo : Opstina - Municipality","42.0069115","20.9715269","21MKD004007",2,3150
"MCD","Veles","41.7164563","21.7722966","MKDr000000033",3,3153
"NOR","Norway : Dispersed in the country / territory","44.2139566","-70.5448096","NOR",0,2077
"OMN","Oman : Dispersed in the country / territory","21.512583","55.923255","OMN",0,2080
"PAK","Azad Kashmir : Pakistan administered area","33.9259055","73.7810334","20XJK003",1,2082
"PAK","Balochistan : Province","28.4907332","65.0957792","21PAK007",1,2088
"PAK","Islamabad : Federal capital territory","33.7293882","73.0931461","21PAK005",1,2125
"PAK","Khyber Pakhtunkhwa : Province","34.9526205","72.331113","21PAK002",1,2143
"PAK","Punjab : Province","31.1704063","72.7097161","21PAK006",1,2182
"PAK","Sindh : Province","25.8943018","68.5247149","21PAK008",1,2194
"PAN","Panama : Dispersed in the country / territory","9.1011785","-79.4028639","PAN",0,2218
"PNG","Papua New Guinea : Dispersed in the country / territory","-6.314993","143.95555","PNG",0,2232
"PNG","Port Moresby : National Capital District","-9.4438004","147.1802671","20PNG015",1,2241
"PNG","Border villages - do not use","13.0735319","-16.7434752","GMB",0,1214
"PNG","Vanimo","-2.6896767","141.2998457","PNGr000000107",3,2244
"PAR","Asuncion","-25.2637399","-57.575926","PRYs003326",3,2250
"PAR","Paraguay : Dispersed in the country / territory","-23.442503","-58.443832","PRY",0,2251
"PAR","Ciudad del Este","-25.514122214069","-54.62945851219","PRYr000000141",3,4535
"PAR","Encarnación","-27.335785019905","-55.872344970703","PRYr000000063",3,4536
"PER","Peru : Dispersed in the country / territory","-9.189967","-75.015152","PER",0,2253
"PHI","CALABARZON (Region IV-A ) : Region","14.1007803","121.0793705","20PHL004",1,2271
"PHI","Central Luzon (Region III) : Region","14.6443486","120.5264703","20PHL003",1,2277
"PHI","National Capital Region (NCR) : Region","14.6090537","121.0222565","20PHL013",1,2310
"PHI","Philippines : Dispersed in the country / territory","12.879721","121.774017","PHL",0,2288
"PHI","Cordillera Administrative Region (CAR)","17.3512542","121.1718851","20PHL014",1,2280
"PHI","Region 7","10.2968562","123.8886774","20PHL007",1,2332
"PHI","Ilocos Region","16.0832144","120.6199895","20PHL001",1,2292
"PHI","Northern Mindanao","8.0201635","124.6856509","20PHL010",1,2318
"PHI","SOCCSKSARGEN (Region XII)","6.2706918","124.6856509","20PHL012",1,2337
"PHI","Western Visayas (Region VI) : Region","11.0049836","122.5372741","20PHL006",1,2344
"PHI","Davao (Region XI) : Region","7.190708","125.455341","20PHL011",1,2283
"PHI","Region 5","16.2244895","119.8625471","20PHL005",1,2330
"PHI","Region 8","11.250742195927","124.88954631485","20PHL008",1,3593
"PHI","Zamboanga Peninsula (Region IX) : Region","8.154077","123.258793","20PHL009",1,2348
"PHI","Region 2: Cagayan Valley","17.379683193407","122.01053481549","20PHL002",1,4362
"PHI","Caraga (Region XIII)","8.8014562","125.7406882","20PHL016",1,2273
"PHI","AGUSAN DEL NORTE","8.9456259","125.5319234","20PHL016002",2,2254
"PHI","AGUSAN DEL SUR","8.6051665","125.916739","20PHL016003",2,2255
"PHI","BASILAN","6.4296349","121.9870165","20PHL015007",2,2261
"PHI","BUKIDNON","8.0515054","124.9229946","20PHL010013",2,2268
"PHI","CITY OF ISABELA(not a province)","12.879721","121.774017",NA,NA,2278
"PHI","COMPOSTELA VALLEY","7.512515","126.1762615","20PHL011082",2,2279
"PHI","COTABATO CITY","7.2046668","124.2310439","20PHL012098",2,2281
"PHI","DAVAO DEL NORTE","7.5617699","125.6532848","20PHL011023",2,2284
"PHI","DAVAO DEL SUR","6.7662687","125.3284269","20PHL011024",2,2285
"PHI","DAVAO ORIENTAL","7.3171585","126.5419887","20PHL011025",2,2286
"PHI","LANAO DEL NORTE","7.8721811","123.8857747","20PHL010035",2,2296
"PHI","LANAO DEL SUR","7.823176","124.4198243","20PHL015036",2,2297
